,SCHOOL,Longitude,Latitude,Address
0,Ca Univ Of Southern Ca School Of Medicine,-96.0055344,36.1381886,"Oklahoma State University Center for Health Sciences, 1111, West 17th Street, West Tulsa, Tulsa, Tulsa County, Oklahoma, 74107, United States "
1,Ca Univ Of Ca San Diego School Of Medicine,-117.2359809,32.8746036,"UC San Diego School of Medicine, Gilman Drive, San Diego, San Diego County, California, 92161, United States "
2,Hi Univ Of Hi John A Burns School Of Med,-157.8635294,21.2965486,"685, Ilalo Street, Kakaako Waterfront, Kaka‘ako, Honolulu, Honolulu County, Hawaii, 96813, United States "
3,Ut University Of Ut School Of Medicine,-98.5751835,29.5076015,"University of Texas Health Science Center at San Antonio - Long Campus, 7703, Floyd Curl Drive, South Texas Medical Center, San Antonio, Bexar County, Texas, 78229, United States "
4,Fn Guatemala,-90.5135782,14.616172,"10a Avenida, Zona 4, Ciudad de Guatemala, Departamento de Guatemala, 01004, Guatemala "
5,Ny State Univ-ny Stony Brook Health Sci Ctr,-73.1161755,40.909791,"Stony Brook University Hospital, 101, Nicolls Road, Town of Brookhaven, Suffolk County, New York, 11794, United States "
6,Tx Baylor College Of Medicine,-95.3962414,29.7105286,"Baylor College of Medicine, 1, Baylor Plaza, Texas Medical Center, Houston, Harris County, Texas, 77030, United States "
7,Male,-97.2405616,37.6780145,"Half Price Books, East Orme Street, Wichita, Sedgwick County, Kansas, 67207, United States "
8,Fn Ireland,-5.649687999999999,54.6599885,"Beverley Drive, Bangor, County Down, Northern Ireland / Tuaisceart Éireann, BT20 5LZ, United Kingdom "
9,Md Johns Hopkins Univ School Of Medicine,-76.5933799,39.2992161,"Johns Hopkins University - East Baltimore Campus, 733, North Broadway, Dunbar-Broadway, Baltimore, Maryland, 21287, United States "
10,Wa University Of Wa School Of Medicine,-90.2629289,38.6351441,"Washington University School of Medicine Campus, Manhattan Mews, Central West End, Saint Louis, Missouri, 63108, United States "
11,Wi Medical College Of Wi,-88.02116509999999,43.0435728,"Milwaukee Regional Medical Center, North 92nd Street, Wauwatosa, Milwaukee County, Wisconsin, 53226, United States "
12,Tx Univ Of Tx Galveston Medical School,-94.7775436,29.3116372,"University of Texas Medical Branch at Galveston, 301, 14th Street, Galveston, Galveston County, Texas, 77555, United States "
13,Ct Yale University School Of Medicine,-72.9338698,41.30323,"Sterling Hall of Medicine, 111, Cedar Street, Downtown, New Haven, South Central Connecticut Planning Region, Connecticut, 06520, United States "
14,Kirksville College Of Osteopathic M,-92.5892423,40.1932378,"Northeast Regional Medical Center, 315, South Osteopathy, Kirksville, Adair County, Missouri, 63501, United States "
15,"Oklahoma State University, College",-97.0734821,36.126572,"1326, West Hall of Fame Avenue, Stillwater, Payne County, Oklahoma, 74077, United States "
16,Des Moines University-osteopathic D,-93.8163328,41.5410117,"Des Moines University, 8025, Grand Avenue, West Des Moines, Dallas County, Iowa, 50266, United States "
17,State University Of New York Downst,-94.965904,35.921141,"Northeastern State University, West Arden Street, Tahlequah ᏓᎵᏆ, Cherokee County, Oklahoma, 74464, United States "
18,Chicago College Of Osteopathic Medi,-87.999245,41.8280152,"Midwestern University, Woods Lane, Downers Grove, DuPage County, Illinois, 60515, United States "
19,Univ Of Osteopathic Medicine And Hl,-97.3362387,37.6856956,"247, East Douglas Avenue, Wichita, Sedgwick County, Kansas, 67202, United States "
20,Philadelphia College Of Osteopathic,-75.2164944,40.0052824,"Philadelphia College of Osteopathic Medicine, 4170, City Avenue, Sutton Terrace, Philadelphia, Montgomery County, Pennsylvania, 19131, United States "
21,Nova Southeastern Univ Seuhs/com,-80.2457075,26.0786011,"Nova Southeastern University, 3301, College Avenue, Davie, Broward County, Florida, 33314, United States "
22,University Of Health Sciences Colle,74.3097031,31.506564,"مسلم ٹاؤن, تحصیل ماڈل ٹاؤن, Lahore Cantonment Tehsil, لاہور ڈویژن, پنجاب, 54357, پاکستان "
23,College Of Osteopathic Medicine Com,-93.662895,41.5833111,"Munroe Building, 3380, Grand Avenue, Grand Stratford Apartments, Des Moines, Polk County, Iowa, 50312, United States "
24,Ar University Of Ar College Of Medicine,-92.3201209,34.7499553,"University Hospital Heliport, Ambulance Drive, Little Rock, Pulaski County, Arkansas, 72205, United States "
25,Ok University Of Ok College Of Medicine,-97.4955391,35.4797264,"OU College of Medicine, Stanton L Young Boulevard, Oklahoma City, Oklahoma County, Oklahoma, 73117, United States "
26,"Univ Of Texas Medical School, San A",-98.5751835,29.5076015,"University of Texas Health Science Center at San Antonio - Long Campus, 7703, Floyd Curl Drive, South Texas Medical Center, San Antonio, Bexar County, Texas, 78229, United States "
27,Tn Vanderbilt University School Of Medicine,-86.8025487,36.1422248,"Vanderbilt University, 2201, West End Avenue, Nashville-Davidson, Davidson County, Middle Tennessee, Tennessee, 37235, United States "
28,Ga Emory University School Of Medicine,-84.3186209,33.7935014,"Emory Children's Center, 2015, Uppergate Drive, Emory Highlands, Druid Hills, Atlanta, DeKalb County, Georgia, 30322, United States "
29,Mo Univ Of Mo Columbia School Of Medicine,-92.3284649,38.9381997,"1, Hospital Drive, Columbia, Columbia Township, Boone County, Missouri, 65212, United States "
30,Tn University Of Tn College Of Medicine,-90.03049109999999,35.1405855,"Regional Medical Center, 877, Jefferson Avenue, Medical District, Dixie Homes, Memphis, Shelby County, West Tennessee, Tennessee, 38103, United States "
31,Tx Texas Tech University School Of Medicine,-101.8912035,33.5901499,"University Medical Center, 602, Indiana Avenue, Lubbock, Lubbock County, Texas, 79415, United States "
32,Ms University Of Ms School Of Medicine,-90.1712286,32.3310631,"University of Mississippi Medical Center, 2500, North State Street, Fondren, Woodland Hills, Jackson, Hinds County, Mississippi, 39216, United States "
33,Fl University Of Fl College Of Medicine,-87.21858619999999,30.5491387,"University of West Florida, 11000, University Parkway, Ferry Pass, Pensacola, Escambia County, Florida, 32514, United States "
34,Ks University Of Ks Medical Center,-94.6096679,39.0573742,"University of Kansas Medical Center, 3901, Rainbow Boulevard, Rosedale, Kansas City, Wyandotte County, Kansas, 66160, United States "
35,Fn Canada Medical School,-79.3875862,43.6544164,"439, University Avenue, Queen West, Spadina—Fort York, Old Toronto, Toronto, Golden Horseshoe, Ontario, M5G 1Y8, Canada "
36,La Tulane University School Of Medicine,-90.0769497,29.9548998,"South Liberty Street, Storyville, New Orleans, Orleans Parish, Louisiana, 70112, United States "
37,Nc Duke University School Of Medicine,-78.9403039,36.0007035,"Duke University, Cameron Boulevard, Durham, Durham County, North Carolina, 27708, United States "
38,Va Unidentified Va School,-82.179301,36.613491,"Virginia High School, 650, Long Crescent Drive, Spring Garden, Bristol, Virginia, 24201, United States "
39,La La State Univ Shreveport School Of Med,-93.7603609,32.478736,"Linwood Avenue, Fairfield, Shreveport, Caddo Parish, Louisiana, 71106, United States "
40,Mo Washington University School Of Medicine,-90.2629289,38.6351441,"Washington University School of Medicine Campus, Manhattan Mews, Central West End, Saint Louis, Missouri, 63108, United States "
41,Fn Germany,9.4649538,47.65673289999999,"2, Maybachstraße, Hofen, Friedrichshafen, Verwaltungsgemeinschaft Friedrichshafen, Bodenseekreis, Baden-Württemberg, 88045, Deutschland "
42,Ia University Of Ia College Of Medicine,-91.5452423,41.6628189,"Medical Education and Biomedical Research Facility ( MERF ), 375, Newton Road, Iowa City, Johnson County, Iowa, 52242, United States "
43,Fl University Of Miami School Of Medicine,-80.21199279999999,25.7904064,"Miller School Campus, Northwest 11th Road, Miami, Miami-Dade County, Florida, 33136, United States "
44,Tn Unidentified Tn School,-86.65313230000001,36.0954638,"Una Elementary School (1987), Old Murfreesboro Road, Una, Nashville-Davidson, Davidson County, Middle Tennessee, Tennessee, 37217, United States "
45,Tx Univ Of Tx Southwestern Medical Center,-96.8442985,32.8157524,"Forest Park Road, Dallas, Dallas County, Texas, 75235, United States "
46,Mi Wayne State Univ School Of Medicine,-83.0556335,42.3544311,"Scott Hall, 541, East Canfield Street, Medical Center, Midtown, Detroit, Wayne County, Michigan, 48201, United States "
47,"Vanderbilt Univ Sch Of Med, Nashvil",-86.8025487,36.1422248,"Vanderbilt University, 2201, West End Avenue, Nashville-Davidson, Davidson County, Middle Tennessee, Tennessee, 37235, United States "
48,"Univ Of Texas, Southwestern Med Sch",-96.8402208,32.8120563,"University of Texas Southwestern Medical Center, 5323, Harry Hines Boulevard, Dallas, Dallas County, Texas, 75390, United States "
49,"Columbia Sch Of Med, Univ Of Missou",-92.3284649,38.9381997,"1, Hospital Drive, Columbia, Columbia Township, Boone County, Missouri, 65212, United States "
50,"Univ Of Florida Coll Of Med, Gaines",-87.21858619999999,30.5491387,"University of West Florida, 11000, University Parkway, Ferry Pass, Pensacola, Escambia County, Florida, 32514, United States "
51,Al University Of Al School Of Medicine,-86.80379599999999,33.5027612,"University of Alabama at Birmingham, 1720, University Boulevard, Phelan Park Historic District, Five Points South, Birmingham, Jefferson County, Alabama, 35294, United States "
52,Ny Albert Einstein College Of Medicine,-73.8459022,40.8504961,"Jack D. Weiler Hospital, 1825, Eastchester Road, Bronx County, The Bronx, City of New York, New York, 10461, United States "
53,Ca Univ Of Ca San Francisco School Of Med,-122.4597539,37.7627015,"UC Hall, 533, Parnassus Avenue, Inner Sunset, San Francisco, California, 94122, United States "
54,Ca Univ Of Ca Davis School Of Medicine,-121.7531134,38.5387287,"Hutchison Drive, Yolo County, California, 95616, United States "
55,Dc Howard University College Of Medicine,-77.02005969999999,38.9189532,"Howard University, 2400, 6th Street Northwest, Le Droit Park, Ward 1, Washington, District of Columbia, 20059, United States "
56,Fn Iran,51.5024165,35.7439436,"دانشگاه علم و صنعت ایران, کیا دربندسری, علم و صنعت, منطقه ۴ شهر تهران, شهر تهران, بخش مرکزی شهرستان تهران, شهرستان تهران, استان تهران, 16848-95951, ایران "
57,Fn Lebanon,35.51363750000001,33.8826522,"شارع نبعة المطران, الناصرة, أوتيل ديو, الأشرفية, محافظة بيروت, 2052 6703, لبنان "
58,Md University Of Md School Of Medicine,-85.57974759999999,42.2899985,"W.E. Upjohn Campus, 300, Portage Street, Kalamazoo, Kalamazoo County, Michigan, 49007, United States "
59,Ca Univ Of Ca Los Angeles School Of Med,-118.4423346,34.0641608,"Tiverton Avenue, Westwood Village, Westwood, Los Angeles, Los Angeles County, California, 90024, United States "
60,Mn Mayo Medical School,-92.4668056,44.0223789,"Mayo Clinic, 2nd Avenue Southwest, Rochester, Olmsted County, Minnesota, 55903, United States "
61,Pa Jefferson Med Clg-thomas Jefferson Univ,-75.1575828,39.95029770000001,"Thomas Jefferson University, South 9th Street, Bella Vista, Center City, Philadelphia, Philadelphia County, Pennsylvania, 19148, United States "
62,Dc George Washington Univ School Of Med,-77.0509652,38.9002128,"Ross Hall, 2300, I Street Northwest, Foggy Bottom, Ward 2, Washington, District of Columbia, 20037, United States "
63,Or Oregon Health Sciences Univ Schl Of Med,-122.6875766,45.4999467,"Oregon Health & Science University, Southwest Campus Drive, Marquam Hill, Homestead, Portland, Multnomah County, Oregon, 97201, United States "
64,Ny State Univ Of Ny Brooklyn Health Sci Ctr,-73.947775,40.6556676,"770, Parkside Avenue, Flatbush, Brooklyn, Kings County, City of New York, New York, 11226, United States "
65,Ma Boston University School Of Medicine,-71.072414,42.3364043,"Boston University Medical Campus, 715, Albany Street, South End, Boston, Suffolk County, Massachusetts, 02118, United States "
66,Il Northwestern University Medical School,-87.61710169999999,41.8961218,"Arthur Rubloff Building, 750, North Lake Shore Drive, Streeterville, Near North Side, Chicago, Cook County, Illinois, 60611, United States "
67,Il Univ Of Chicago Pritzker School Of Med,-87.60270419999999,41.7914746,"The University of Chicago, 5801, South Ellis Avenue, Hyde Park, Chicago, Hyde Park Township, Cook County, Illinois, 60637, United States "
68,Nc Wake Forest University School Of Medicine,-80.24023869999999,36.1001204,"Wake Forest University Wake Downtown, 455, Vine Street, Wake Forest Innovation Quarter, Winston-Salem, Forsyth County, North Carolina, 27101, United States "
69,Ny Columbia Univ Clg-physicians & Surgeons,-73.94139229999999,40.84154280000001,"Columbia University Irving Medical Center, 630, West 168th Street, Manhattan Community Board 12, Manhattan, New York County, City of New York, New York, 10031, United States "
70,Ny Cornell University Medical College,-73.9549555,40.7644849,"Weill Medical College of Cornell University, 1300, York Avenue, Manhattan Community Board 8, Manhattan, New York County, City of New York, New York, 10021, United States "
71,Pa University Of Pa School Of Medicine,-75.19259799999999,39.9476279,"University of Pennsylvania, Market Street, Powelton Village, Philadelphia, Philadelphia County, Pennsylvania, 19104, United States "
72,Oh Univ Of Cincinnati College Of Medicine,-84.50374269999999,39.1385503,"University of Cincinnati Medical Campus, Eden Avenue, Pill Hill, Corryville, Cincinnati, Hamilton County, Ohio, 45267, United States "
73,Ma Harvard Medical School,-71.104215,42.3356451,"Harvard Medical School, 25, Shattuck Street, Fenway / Kenmore, Boston, Suffolk County, Massachusetts, 02115, United States "
74,Il University Of Il College Of Medicine,-87.6734792,41.8713117,"UIC College of Medicine, 1835, West Polk Street, Illinois Medical District, Near West Side, Chicago, West Chicago Township, Cook County, Illinois, 60612, United States "
75,Ca Univ Of Ca Irvine College Of Medicine,-117.8517795,33.6442438,"Health Science Road, University of California, Irvine, Irvine, Orange County, California, 92697, United States "
76,Ga Medical College Of Ga School Of Medicine,-81.9899149,33.4706237,"Augusta University Medical Center, 1120, 15th Street, Augusta, Richmond County, Georgia, 30912, United States "
77,Ca Loma Linda Univ College Of Medicine,-117.2641768,34.0504252,"Loma Linda University, Anderson Street, Loma Linda, San Bernardino County, California, 92350, United States "
78,Co University Of Co School Of Medicine,-104.8359873,39.7455666,"Education 1, 13070, East 19th Avenue, Aurora, Adams County, Colorado, 80045, United States "
79,Mn Univ Of Mn Minneapolis Medical School,-93.2334764,44.9725425,"University of Minnesota Medical Center East Bank, 500, Southeast Harvard Street, Minneapolis, Hennepin County, Minnesota, 55455, United States "
80,Vt University Of Vt College Of Medicine,-73.1937427,44.47825659999999,"Dana Medical Library, 81, Colchester Avenue, Burlington, Chittenden County, Vermont, 05404, United States "
81,Fn Philippines Medical School,121.0673018,14.6986318,"Regalado Avenue, Fairview, 5th District, Quezon City, Eastern Manila District, Metro Manila, 1100, Pilipinas / Philippines "
82,Fn El Salvador,-89.23034080000001,13.6941717,"Plaza San Benito, Calle La Reforma, Urbanización La Mascota, Colonia San Benito, Distrito Municipal 3, San Salvador, Departamento de San Salvador, 1101, El Salvador "
83,Nm University Of Nm School Of Medicine,-106.6157298,35.0887134,"Albuquerque Indian Health Center, 801, Vassar Drive Northeast, Nob Hill, Albuquerque, Bernalillo County, New Mexico, 87106, United States "
84,Pr University Of Pr School Of Medicine,-89.429693,43.07788,"Health Sciences Learning Center, 750, Highland Avenue, Madison, Dane County, Wisconsin, 53792, United States "
85,Fn Israel,35.2073008,31.7879065,"206, יפו, מקור ברוך, ירושלים, נפת ירושלים, מחוז ירושלים, 9432531, ישראל "
86,Ny Mt Sinai School Of Medicine,-73.95374140000001,40.79001179999999,"The Mount Sinai Hospital, 1, Madison Avenue, Manhattan Community Board 11, Manhattan, New York County, City of New York, New York, 10129, United States "
87,Il Unidentified Il School,-87.6797358,41.502552,"Illinois School, Illinois Street, Park Forest, Rich Township, Cook County, Illinois, 60466, United States "
88,Mi University Mi Medical School,-85.668257,42.9708759,"Michigan Street Northeast, Grand Rapids, Kent County, Michigan, 49506, United States "
89,Va University Of Va School Of Medicine,-78.5009733,38.0316075,"University of Virginia Medical Center, 1215, Lee Street, Jefferson Park Avenue, Starr Hill, Charlottesville, Virginia, 22908, United States "
90,Az University Of Az College Of Medicine,-110.9456546,32.2406085,"Banner University Medical Center Tucson, 1501, North Campbell Avenue, North University, Tucson, Pima County, Arizona, 85724, United States "
91,Ca Unidentified Ca School,-117.9255867,33.6888449,"California Elementary School, California Street, Costa Mesa, Orange County, California, 92626, United States "
92,Fn India,78.9923934,10.1666544,"Trichy - Pudukkottai - Aranthangi - Mimisal Road, Aranthangi, Aranthangi taluk, Pudukkottai District, Tamil Nadu, 614616, India "
93,Oh Oh State University College Of Medicine,-96.0055344,36.1381886,"Oklahoma State University Center for Health Sciences, 1111, West 17th Street, West Tulsa, Tulsa, Tulsa County, Oklahoma, 74107, United States "
94,Fn Mexico,-99.2510676,19.3878023,"Calle Paseo de los Tamarindos, Colonia Cooperativa Palo Alto, Cuajimalpa de Morelos, Santa Fe, Ciudad de México, 05120, México "
95,Ny Ny University School Of Medicine,-73.97385109999999,40.742133,"Tisch Hospital, 550, 1st Avenue, Manhattan Community Board 6, Manhattan, New York County, City of New York, New York, 10016, United States "
96,Ca Stanford University School Of Medicine,-122.175758,37.4318102,"Li Ka Shing Center, 291, Campus Drive West, Stanford, Santa Clara County, California, 94305, United States "
97,Fn Spain,2.1362257,41.36567660000001,"The Good Burger, 149, Gran Via de les Corts Catalanes, la Bordeta, Sants-Montjuïc, Barcelona, Barcelonès, Barcelona, Catalunya, 08014, España "
98,Fn Sri Lanka,79.9622687,6.9145047,"Malabe, Colombo District, Western Province, 10115, ශ්‍රී ලංකාව இலங்கை "
99,Ky Univ Of Louisville School Of Medicine,-85.7474926,38.2498226,"I 65, Louisville, Jefferson County, Kentucky, 40202, United States "
100,Ny State Univ Of Ny Syracuse Health Sci Ctr,-76.13913769999999,43.0403156,"766, Irving Avenue, University Hill, City of Syracuse, Onondaga County, New York, 13210, United States "
101,Ne Creighton University School Of Medicine,-95.9512522,41.2671327,"2694, Burt Street, Omaha, Douglas County, Nebraska, 68131, United States "
102,Nv University Of Nv School Of Medicine,-119.8140505,39.5489648,"University of Nevada, Reno, 1664, North Virginia Street, Reno, Washoe County, Nevada, 89557, United States "
103,Mo St Louis University School Of Medicine,-90.2377947,38.6224549,"Saint Louis University South Campus, Ranken Avenue, Midtown, Saint Louis, Missouri, 63103, United States "
104,Il Univ Of Health Sciences Chicago Med Schl,-87.8594257,42.2999605,"Rosalind Franklin University of Medicine and Science, 3333, Green Bay Road, Five Points, North Chicago, Lake County, Illinois, 60064, United States "
105,Fn Unidentified Foreign Medical School,-82.3434662,29.6398333,"UF Health Shands Hospital, 1600, Depot Avenue Rails-to-Trails Bike Path, Gainesville, Alachua County, Florida, 32608, United States "
106,Ri Brown University Program In Medicine,-71.40686029999999,41.8239593,"Brown University, Wade Street, Fox Point, Providence, Providence County, Rhode Island, 02912, United States "
107,U/ut Col/med,-98.5812018,29.5157508,"University of Texas Health Science Center San Antonio - Greehey Campus, James P. Hollers Drive, South Texas Medical Center, San Antonio, Bexar County, Texas, 78229, United States "
108,La La State Univ New Orleans School Of Med,-90.0836789,29.956596,"Lions Eye Building, 2020, Gravier Street, Storyville, New Orleans, Orleans Parish, Louisiana, 70112, United States "
109,Fn Poland,21.0402508,52.295429,"20, Łojewska, Kondratowicza, Bródno, Targówek, Warszawa, województwo mazowieckie, 03-392, Polska "
110,Ma Tufts University School Of Medicine,-71.0622717,42.3500802,"Tufts University, 274, Tremont Street, Bay Village, Boston, Suffolk County, Massachusetts, 02111, United States "
111,Wi University Of Wi School Of Medicine,-89.429693,43.07788,"Health Sciences Learning Center, 750, Highland Avenue, Madison, Dane County, Wisconsin, 53792, United States "
112,Dc Georgetown University School Of Medicine,-77.0770304,38.9118852,"Georgetown University, 3700, O Street Northwest, Peter Square, Georgetown, Ward 2, Washington, District of Columbia, 20057, United States "
113,Il Rush Medical College Of Rush University,-87.6692353,41.8739883,"Rush University Medical Center, 1653, West Congress Parkway, Illinois Medical District, Near West Side, Chicago, West Chicago Township, Cook County, Illinois, 60612, United States "
114,Mo Kirksville College Of Osteopathic Med,-92.5892423,40.1932378,"Northeast Regional Medical Center, 315, South Osteopathy, Kirksville, Adair County, Missouri, 63501, United States "
115,Fl Univ Of South Fl College Of Medicine,-82.4493877,27.9437407,"Water Street Cafe and Espresso Bar, 560, Channelside Drive, Chamberlins, Tampa, Hillsborough County, Florida, 33602, United States "
116,Oh Case Western Reserve Univ School Of Med,-81.620285,41.5049514,"CWRU Health Education Campus (HEC), Chester Avenue, Hough, Cleveland, Cuyahoga County, Ohio, 44113, United States "
117,Fn Belgium,5.629308099999999,50.6689519,"Rue de la Croix Jurlet, Rhées, Herstal, Liège, Wallonie, 4040, België / Belgique / Belgien "
118,Fn China,119.351932,26.071959,"浦墘路, 鼓山镇, 晋安区, 福州市, 福建省, 350014, 中国 "
119,Tx University Of Tx Houston Medical School,-95.3371084,29.7115598,"Medical Circle, Houston, Harris County, Texas, 77204, United States "
120,Fn South Africa,28.1707907,-26.2258309,"Webber Road, Germiston South, Ekurhuleni Ward 36, Germiston, City of Ekurhuleni Metropolitan Municipality, Gauteng, 1401, South Africa "
121,In In University School Of Medicine,-93.2772461,37.1807759,"South National Avenue, Meador Park, Springfield, Greene County, Missouri, 65897, United States "
122,Nh Dartmouth Medical School,-72.28510849999999,43.7087283,"Remsen Medical Sciences Building, 66, College Street, Hanover, Grafton County, New Hampshire, 03755, United States "
123,Ne University Of Ne College Of Medicine,-95.9759002,41.2548733,"University of Nebraska Medical Center, South 45th Street, Blackstone, Omaha, Douglas County, Nebraska, 68106, United States "
124,Ny Albany Medical College,-73.77776349999999,42.6534295,"Albany Medical Center, 43, New Scotland Avenue, University Heights, City of Albany, Albany County, New York, 12208, United States "
125,Ny Unidentified Ny School,-93.9164585,39.6788037,"Northeast Wallace Drive, Caldwell County, Missouri, 64644, United States "
126,Pa Temple University School Of Medicine,-75.15212269999999,40.0068582,"Temple University School of Medicine, 3500, North Broad Street, Nicetown, Philadelphia, Philadelphia County, Pennsylvania, 19140, United States "
127,Fn Italy,11.2528063,43.7767039,"Mercato Centrale + Mercato di San Lorenzo, 4, Piazza del Mercato Centrale, Quartiere 1, Firenze, Toscana, 50123, Italia "
128,Ny Ny Medical College,-73.81007269999999,41.0852704,"New York Medical College, Plaza West, Town of Mount Pleasant, Westchester County, New York, 10532, United States "
129,Mn Unidentified Mn School,-93.1954491,44.9625813,"Nexus Community Partners, 2314, University Avenue West, South Saint Anthony Park, Saint Anthony Park, Saint Paul, Ramsey County, Minnesota, 55114, United States "
130,Il Loyola Univ Chicago Stritch Schl Of Med,-87.836112,41.85862729999999,"Loyola University Medical Center, 2160, South 1st Avenue, Maywood, Proviso Township, Cook County, Illinois, 60153, United States "
131,Pa Hahnemann University School Of Medicine,-75.1798578,40.0194915,"Drexel University Queens Lane Campus, The Oak Road, East Falls, Philadelphia, Philadelphia County, Pennsylvania, 19129, United States "
132,Wi Unidentified Wi School,-89.3003497,43.0146977,"4861, Dale Road, McFarland, Dane County, Wisconsin, 53558, United States "
133,Oh Medical College Of Oh,-84.50374269999999,39.1385503,"University of Cincinnati Medical Campus, Eden Avenue, Pill Hill, Corryville, Cincinnati, Hamilton County, Ohio, 45267, United States "
134,Fn Taiwan (formosa),121.0793705,23.9036873,"螺婆間山縱走三來稜山, 萬豐村, 仁愛鄉, 南投縣, 臺灣 "
135,Nc University Of Nc School Of Medicine,-79.0523659,35.9058399,"University of North Carolina, Manning Drive, Chapel Hill, Orange County, North Carolina, 27514, United States "
136,Ny Univ Of Rochester School Of Medicine,-77.6269403,43.1230503,"University of Rochester Medical Center, 601, Elmwood Avenue, Genesee Valley Park, City of Rochester, Monroe County, New York, 14611, United States "
137,Mi Unidentified Mi School,-84.56235649999999,42.7475469,"Mid-Michigan Leadership Academy, 730, West Maple Street, Old Forest, Lansing, Ingham County, Michigan, 48906, United States "
138,Ct University Of Ct School Of Medicine,-72.7912369,41.7298363,"University of Connecticut Health Center, 263, Farmington Avenue, Farmington, Capitol Planning Region, Connecticut, 06030, United States "
139,Il Chicago College Of Osteopathic Medicine,-87.999245,41.8280152,"Midwestern University, Woods Lane, Downers Grove, DuPage County, Illinois, 60515, United States "
140,Ma University Of Ma Medical School,-71.7633073,42.2786007,"UMass Memorial Medical Center - University Campus, 55, Lake Avenue, Lakeview, Worcester, Worcester County, Massachusetts, 01655, United States "
141,La Unidentified La School,-118.4396756,34.1825782,"Hazeltine Avenue, Van Nuys Neighborhood Council District, Los Angeles, Los Angeles County, California, 91401, United States "
142,Ok Oral Roberts Univ School Of Medicine,-95.9528284,36.0508093,"Oral Roberts University, University Avenue, Tulsa, Tulsa County, Oklahoma, 74136, United States "
143,Fn Grenada (west Indies),-61.74350099999999,12.0445406,"Paddock Road, Belmont, St. George's, Saint George, Grenada "
144,Fn Egypt (united Arab Republic),30.802498,26.820553,"الوادي الجديد, مصر "
145,Fn Colombia,-74.0926071,4.616284500000001,"Carrera 32, Estación Central, UPZs de Bogotá, Localidad Puente Aranda, Bogotá, Bogotá, Distrito Capital, RAP (Especial) Central, 111611, Colombia "
146,Mn University Mn Duluth School Of Medicine,-92.086065,46.8163655,"University of Minnesota Duluth, 1049, University Drive, Duluth, Saint Louis County, Minnesota, 55812, United States "
147,Mo Univ Of Health Sciences Clg Of Osteo Med,-92.5892423,40.1932378,"Northeast Regional Medical Center, 315, South Osteopathy, Kirksville, Adair County, Missouri, 63501, United States "
148,Ny State Univ Of Ny Buffalo School Of Med,-78.8692757,42.8997469,"Buffalo Niagara Medical Campus, North Street, Buffalo Niagara Medical Campus, Buffalo, Erie County, New York, 14201, United States "
149,New York University,-73.9964609,40.72951339999999,"New York University, West 8th Street, Washington Square Village, Manhattan Community Board 2, Manhattan, New York County, City of New York, New York, 10011, United States "
150,Unc-ch,-79.0469134,35.9049122,"University of North Carolina, Manning Drive, Chapel Hill, Orange County, North Carolina, 27514, United States "
151,St Georges University School Of Med,-61.7736983,12.0003037,"Overflow Drive, St. George's University Campus, True Blue, Saint George, Grenada "
152,Med College Georgia,-81.9899149,33.4706237,"Augusta University Medical Center, 1120, 15th Street, Augusta, Richmond County, Georgia, 30912, United States "
153,University Of Minnesota Medical Sch,-93.2334764,44.9725425,"University of Minnesota Medical Center East Bank, 500, Southeast Harvard Street, Minneapolis, Hennepin County, Minnesota, 55455, United States "
154,University Of South Florida College,-82.41385389999999,28.0587031,"University of South Florida, 4202, East Fowler Avenue, Tampa, Hillsborough County, Florida, 33620, United States "
155,University Of Cincinnati College Of,-84.51495039999999,39.1329219,"University of Cincinnati Main Campus, Jefferson Avenue, Corryville, Cincinnati, Hamilton County, Ohio, 45221, United States "
156,Mi Mi State Univ Of Osteopathic Medicine,-84.4639053,42.7222737,"Wilson Road, East Lansing, Ingham County, Michigan, 48824, United States "
157,"Hahnemann Univ Sch Of Med, Philadel",-75.1798578,40.0194915,"Drexel University Queens Lane Campus, The Oak Road, East Falls, Philadelphia, Philadelphia County, Pennsylvania, 19129, United States "
158,Ludwika Warynskiego Silesian Medica,18.8970984,50.3504686,"78, Wrocławska, Kleinfeld, Śródmieście, Bytom, Górnośląsko-Zagłębiowska Metropolia, województwo śląskie, 41-902, Polska "
159,U Witwatersrand-s Afr,28.0304733,-26.1928836,"University of the Witwatersrand Johannesburg, 1, Jan Smuts Avenue, Braamfontein, Johannesburg Ward 60, Johannesburg, City of Johannesburg Metropolitan Municipality, Gauteng, 2000, South Africa "
160,Mercer University,-84.2631273,33.8730877,"Mercer University, Atlanta, Mercer Trail, Embry Hills, DeKalb County, Georgia, 30340, United States "
161,Med College Virginia,-78.5009733,38.0316075,"University of Virginia Medical Center, 1215, Lee Street, Jefferson Park Avenue, Starr Hill, Charlottesville, Virginia, 22908, United States "
162,"Medical College Of Georgia, Augusta",-81.9899149,33.4706237,"Augusta University Medical Center, 1120, 15th Street, Augusta, Richmond County, Georgia, 30912, United States "
163,Tufts University School Of Medicine,-71.0622717,42.3500802,"Tufts University, 274, Tremont Street, Bay Village, Boston, Suffolk County, Massachusetts, 02111, United States "
164,University Of Washington School Of,-122.3076871,47.6548287,"Mary Gates Hall, 1851, Northeast Grant Lane, Central Campus, University District, Seattle, King County, Washington, 98195, United States "
165,Pa Pa State University College Of Medicine,-84.46531279999999,42.7225356,"Lot 33, Wilson Road, East Lansing, Ingham County, Michigan, 48824, United States "
166,Fn United Kingdom-england-wales,0.188884,51.47150730000001,"Slade Green Road, Howbury, Slade Green, London Borough of Bexley, London, Greater London, England, DA8 2HU, United Kingdom "
167,Il Southern Il Univ School Of Medicine,-89.6577507,39.8106388,"West Hay Street, Springfield, Sangamon County, Illinois, 62781, United States "
168,Il Univ Of Il Peoria College Of Medicine,-89.5972747,40.6984596,"University of Illinois College of Medicine at Peoria, Main Street, Roanoke-Randolph Street Historic District, Peoria, Peoria County, Illinois, 61602, United States "
169,Pa Univ Of Pittsburgh School Of Medicine,-79.9613241,40.4431287,"University of Pittsburgh, 4200, Fifth Avenue, Bluff, Pittsburgh, Allegheny County, Pennsylvania, 15260, United States "
170,University Of Chicago Pritzker Scho,-87.60270419999999,41.7914746,"The University of Chicago, 5801, South Ellis Avenue, Hyde Park, Chicago, Hyde Park Township, Cook County, Illinois, 60637, United States "
171,Il Univ Of Il Rockford College Of Medicine,-89.05547709999999,42.2837326,"University of Illinois-College of Medicine at Rockford, 1601, Parkview Avenue, Rockford, Rockford Township, Winnebago County, Illinois, 61107, United States "
172,Tx Univ Of Tx San Antonio Medical School,-98.5751835,29.5076015,"University of Texas Health Science Center at San Antonio - Long Campus, 7703, Floyd Curl Drive, South Texas Medical Center, San Antonio, Bexar County, Texas, 78229, United States "
173,Pa Medical College Of Pa,-75.1798578,40.0194915,"Drexel University Queens Lane Campus, The Oak Road, East Falls, Philadelphia, Philadelphia County, Pennsylvania, 19129, United States "
174,Nj Nj Medical School,-74.189656,40.7400804,"Rutgers Biomedical and Health Sciences, Cabinet Street, University Heights, Newark, Essex County, New Jersey, 07107, United States "
175,Il Abraham Lincoln School Of Medicine,-88.073939,41.8668118,"Abraham Lincoln Elementary School, Greenfield Avenue, Glen Ellyn, DuPage County, Illinois, 60137, United States "
176,"Indiana Univ Sch Of Med, Indianapol",-86.16517139999999,39.7815613,"Fairbanks Hall, 340, West 10th Street, Fayette Street Conservation Area, Indianapolis, Marion County, Indiana, 46202, United States "
177,Sc Medical Univ Of Sc College Of Medicine,-79.9459976,32.7833917,"Calhoun Street, Radcliffeborough, Charleston, Charleston County, South Carolina, 29425, United States "
178,Ky University Of Ky College Of Medicine,-84.5073963,38.0311683,"University of Kentucky, 101, South Limestone, Academic Core, University of Kentucky, Lexington, Fayette County, Kentucky, 40506, United States "
179,Fn Pakistan,74.36602479999999,31.4597249,"Sector AA Phase 4, Punjab Cooperative Housing Society, امر سدھو, تحصیل ماڈل ٹاؤن, Lahore Cantonment Tehsil, لاہور ڈویژن, پنجاب, 04200, پاکستان "
180,University Of Iowa College Of Medic,-91.5452423,41.6628189,"Medical Education and Biomedical Research Facility ( MERF ), 375, Newton Road, Iowa City, Johnson County, Iowa, 52242, United States "
181,University Of Osteopathic Medicine,-86.202795,39.8108805,"Marian University, 3200, Cold Spring Road, Brooklyn Heights, Indianapolis, Marion County, Indiana, 46222, United States "
182,University Of Nebraska College Of M,-103.6428571,41.8753804,"Western Nebraska Community College - Scottsbluff Campus, 12th Avenue, Scottsbluff, Scotts Bluff County, Nebraska, 69361, United States "
183,Medical College Guru Nanak Dev Univ,75.7711427,30.9057436,"Ludhiana, Ludhiana (West) Tahsil, Ludhiana District, Punjab, 141012, India "
184,University Of Colorado School Of Me,-104.8359873,39.7455666,"Education 1, 13070, East 19th Avenue, Aurora, Adams County, Colorado, 80045, United States "
185,University Of Louisville School Of,-85.7614177,38.2161875,"Oppenheimer Hall, 2217, South 3rd Street, Louisville, Jefferson County, Kentucky, 40208, United States "
186,The Medical School University Of Br,-95.189555,29.5096767,"1584, South Friendswood Drive, Friendswood, Galveston County, Texas, 77546, United States "
187,University Of Pennsylvania School O,-75.1932137,39.9522188,"University of Pennsylvania, Market Street, Powelton Village, Philadelphia, Philadelphia County, Pennsylvania, 19104, United States "
188,University Of Missouri School Of Me,-92.3284649,38.9381997,"1, Hospital Drive, Columbia, Columbia Township, Boone County, Missouri, 65212, United States "
189,Finch University Of Health Sciences,-87.8596187,42.3005159,"Rosalind Franklin University of Medicine and Science, 3333, Green Bay Road, Five Points, North Chicago, Lake County, Illinois, 60064, United States "
190,Michigan State University College O,-84.47908269999999,42.7250725,"Anthony Hall, 474, South Shaw Lane, East Lansing, Ingham County, Michigan, 48824, United States "
191,Creighton University School Of Medi,-95.9512522,41.2671327,"2694, Burt Street, Omaha, Douglas County, Nebraska, 68131, United States "
192,University Of Alabama School Of Med,-87.52810079999999,33.2066297,"University Boulevard East, Patton Place, Tuscaloosa, Tuscaloosa County, Alabama, 35402, United States "
193,Tulane University School Of Medicin,-90.0769497,29.9548998,"South Liberty Street, Storyville, New Orleans, Orleans Parish, Louisiana, 70112, United States "
194,Guntur Medical College Nagarjuna Un,80.4381897,16.2982071,"Guntur Medical College, Brodipet 1st line, Brodipet, Guntur, Guntur District, Andhra Pradesh, 522001, India "
195,B J Medical College University Of P,73.8717723,18.5265425,"BJ Medical College, Sassoon Marg, Somwar Peth, Pune City, Pune, Maharashtra, 411001, India "
196,Andhra Medical College Andhra Unive,83.30486599999999,17.7064928,"Andhra Medical College, KGH In-Gate, Maharani Peta, MTC Palem, Visakhapatnam, Visakhapatnam (Urban), Visakhapatnam District, Andhra Pradesh, 530001, India "
197,University Of Illinois College Of M,-87.6734792,41.8713117,"UIC College of Medicine, 1835, West Polk Street, Illinois Medical District, Near West Side, Chicago, West Chicago Township, Cook County, Illinois, 60612, United States "
198,Ohio Not Listed,-82.9319076,39.9798917,"Dairy Mart, 490, North Cassady Avenue, Bexley, Franklin County, Ohio, 43209, United States "
199,University Of Texas-houston Medical,-95.4031995,29.7029537,"UTHealth University Center Tower, 7000, Fannin Street, Texas Medical Center, Houston, Harris County, Texas, 77030, United States "
200,Howard University College Of Medici,-77.02005969999999,38.9189532,"Howard University, 2400, 6th Street Northwest, Le Droit Park, Ward 1, Washington, District of Columbia, 20059, United States "
201,Medical College Of Wisconsin,-88.02116509999999,43.0435728,"Milwaukee Regional Medical Center, North 92nd Street, Wauwatosa, Milwaukee County, Wisconsin, 53226, United States "
202,Jiangxi Medical College,117.976767,28.42077,"上饶幼儿师范高等专科学校, 志敏东大道, 信州区, 茅家岭街道, 信州区, 上饶市, 江西省, 334000, 中国 "
203,Baylor College Of Medicine,-95.3962414,29.7105286,"Baylor College of Medicine, 1, Baylor Plaza, Texas Medical Center, Houston, Harris County, Texas, 77030, United States "
204,University Of Wisconsin Medical Sch,-89.429693,43.07788,"Health Sciences Learning Center, 750, Highland Avenue, Madison, Dane County, Wisconsin, 53792, United States "
205,University Of Kansas School Of Medi,-97.3159489,37.7019635,"University of Kansas - School of Medicine Wichita Campus Kansas University Medical School, 1010, North Kansas Street, Wichita, Sedgwick County, Kansas, 66214, United States "
206,Faculty Of Medicine And Surgery Uni,-90.2622861,38.6350726,"Washington University School of Medicine Campus, Manhattan Mews, Central West End, Saint Louis, Missouri, 63108, United States "
207,Johns Hopkins University School Of,-76.6205177,39.3299013,"Johns Hopkins University, 3400, North Charles Street, Charles Village, Baltimore, Maryland, 21218, United States "
208,University Of Saskatchewan College,-106.6313567,52.1333989,"University of Saskatchewan, 110 Street West, Sutherland, Saskatoon, Division No. 11, Saskatchewan, S7N 1X6, Canada "
209,University Of South Dakota School O,-96.7813376,43.60007239999999,"North Career Avenue, Sioux Falls, Benton Township, Minnehaha County, South Dakota, 57107, United States "
210,University Of British Columbia Facu,-123.2520453,49.2631082,"Earth Sciences Building, 2207, Main Mall - šxʷʔey̓eʔ, University of British Columbia, Electoral Area A, Metro Vancouver Regional District, British Columbia, V6T 1Z4, Canada "
211,Loyola University Of Chicago Stritc,-87.836112,41.85862729999999,"Loyola University Medical Center, 2160, South 1st Avenue, Maywood, Proviso Township, Cook County, Illinois, 60153, United States "
212,George Washington University School,-77.0485992,38.8997145,"The George Washington University, 1918, F Street Northwest, Golden Triangle, Ward 2, Washington, District of Columbia, 20052, United States "
213,University Of New Mexico School Of,-106.6185569,35.0935813,"University Of New Mexico North Campus, Yale Boulevard Northeast, Nob Hill, Albuquerque, Bernalillo County, New Mexico, 87131, United States "
214,New York University School Of Medic,-73.97385109999999,40.742133,"Tisch Hospital, 550, 1st Avenue, Manhattan Community Board 6, Manhattan, New York County, City of New York, New York, 10016, United States "
215,New York Medical College,-73.81007269999999,41.0852704,"New York Medical College, Plaza West, Town of Mount Pleasant, Westchester County, New York, 10532, United States "
216,Mcgill University Faculty Of Medici,-73.582049,45.501584,"3559, Rue de la Montagne, Ville-Marie, Montréal, Agglomération de Montréal, Montréal (région administrative), Québec, H3G 1A8, Canada "
217,Fac Of Med National Univ Of Ireland,-8.568196,52.678312,"University of Limerick, University Bridge, Castletroy, Ballysimon ED, Cappavilla ED, Shannon Municipal District, County Clare, Munster, V94 NYD3, Éire / Ireland "
218,Albert Einstein College Of Medicine,-73.8459022,40.8504961,"Jack D. Weiler Hospital, 1825, Eastchester Road, Bronx County, The Bronx, City of New York, New York, 10461, United States "
219,Albany Medical College,-73.77776349999999,42.6534295,"Albany Medical Center, 43, New Scotland Avenue, University Heights, City of Albany, Albany County, New York, 12208, United States "
220,Jefferson Medical College Of Thomas,-104.9213055,39.6469327,"South Ivanhoe Street, Denver, Colorado, 80222, United States "
221,Hahnemann Medical College Of Philad,-75.1798578,40.0194915,"Drexel University Queens Lane Campus, The Oak Road, East Falls, Philadelphia, Philadelphia County, Pennsylvania, 19129, United States "
222,University Of Southern California S,-118.285117,34.0223519,"University of Southern California, Flower Street, Historic South-Central, Los Angeles, Los Angeles County, California, 90007, United States "
223,Mahatma Gandhi Memorial Medical Col,75.88287849999999,22.714332,"MGM Medical College, Old A. B. Road, Indore City, Indore, Juni Indore Tahsil, Indore District, Madhya Pradesh, 452001, India "
224,Washington University School Of Med,-90.2653786,38.6367895,"Barnes-Jewish Hospital, 1, South Kingshighway Boulevard, Saint Louis, Missouri, 63110, United States "
225,Faculty Of Medicine University Of D,-90.2629602,38.6351811,"Washington University School of Medicine Campus, Manhattan Mews, Central West End, Saint Louis, Missouri, 63108, United States "
226,Univ Of Iowa,-91.5549771,41.66270780000001,"Iowa Wrestling Training Facility, 660, Hawkins Drive, Iowa City, Johnson County, Iowa, 52242, United States "
227,N H L Municipal Medical College Guj,72.5711439,23.017614,"Commercial AndMuseum SIte, Kochrab, SabarmatiTaluka, Ahmedabad District, Gujarat, 380043, India "
228,University Of North Carolina At Cha,-79.0469134,35.9049122,"University of North Carolina, Manning Drive, Chapel Hill, Orange County, North Carolina, 27514, United States "
229,Ohio State University College Of Me,-83.0168242,39.9941487,"Meiling Hall, 370, West Ninth Avenue, University District District 4, Columbus, Franklin County, Ohio, 43210, United States "
230,Dalhousie University Faculty Of Med,-63.5837282,44.639013,"Clinical Research Centre, 5849, University Avenue, Downtown Halifax, Halifax, Halifax Regional Municipality, Halifax County, Nova Scotia, B3H 0A2, Canada "
231,College Of Medicine University Of B,-95.3962414,29.7105286,"Baylor College of Medicine, 1, Baylor Plaza, Texas Medical Center, Houston, Harris County, Texas, 77030, United States "
232,University Of Connecticut School Of,-72.2539805,41.8077414,"Academic Way, West Campus, Storrs, Mansfield, Capitol Planning Region, Connecticut, 06269, United States "
233,Armed Forces Medical College Univer,-94.9157315,39.3441238,"Lewis and Clark Center, Abrams Loop, Leavenworth, Leavenworth County, Kansas, 66027, United States "
234,University Of Michigan Medical Scho,-85.668257,42.9708759,"Michigan Street Northeast, Grand Rapids, Kent County, Michigan, 49506, United States "
235,Government Medical College Punjab U,74.29765979999999,31.4880631,"تحصیل ماڈل ٹاؤن, Lahore Cantonment Tehsil, لاہور ڈویژن, پنجاب, پاکستان "
236,Dr Nicanor Reyes Medical Foundation,121.0673018,14.6986318,"Regalado Avenue, Fairview, 5th District, Quezon City, Eastern Manila District, Metro Manila, 1100, Pilipinas / Philippines "
237,Virgen Milagrosa Educational Instit,120.3413458,15.9198124,"Virgen Milagrosa University Foundation, Dr. Martin Posadas Avenue, Padilla Gomez, San Juan, San Carlos, Pangasinan, Ilocos Region, 2420, Pilipinas / Philippines "
238,Bj Medical College Gujarat Universi,72.6028567,23.0524508,"BJ Medical College ,Haripura -Asarwa, Jethabhai Parmar Garden Path, Girdharnagar, Asarva Taluka, Ahmedabad District, Gujarat, 380016, India "
239,Wisconsin Not Listed,-89.5206834,45.6387576,"3592, County Highway N, Town of Newbold, Town of Crescent, Oneida County, Wisconsin, 54501, United States "
240,Loma Linda University School Of Med,-117.2641768,34.0504252,"Loma Linda University, Anderson Street, Loma Linda, San Bernardino County, California, 92350, United States "
241,Stanford University School Of Medic,-122.175758,37.4318102,"Li Ka Shing Center, 291, Campus Drive West, Stanford, Santa Clara County, California, 94305, United States "
242,University Of Texas Medical School,-95.5969874,29.9262443,"FM 1960 West, Harris County, Texas, 77065, United States "
243,Saint Georges University School Of,-61.7736983,12.0003037,"Overflow Drive, St. George's University Campus, True Blue, Saint George, Grenada "
244,College Of Medicine University Of T,-90.03049109999999,35.1405855,"Regional Medical Center, 877, Jefferson Avenue, Medical District, Dixie Homes, Memphis, Shelby County, West Tennessee, Tennessee, 38103, United States "
245,University Of California San Diego,-117.2340135,32.8800604,"University of California, San Diego, 9500, Gilman Drive, San Diego, San Diego County, California, 92093, United States "
246,School Of Medicine University Of He,-95.3371084,29.7115598,"Medical Circle, Houston, Harris County, Texas, 77204, United States "
247,College Of Medicine Seoul National,126.9994326,37.5807021,"서울대학교 연건캠퍼스, 창경궁로, 원남동, 종로1·2·3·4가동, 종로구, 서울특별시, 03136, 대한민국 "
248,Faculty Of Medicine University Of C,-84.50374269999999,39.1385503,"University of Cincinnati Medical Campus, Eden Avenue, Pill Hill, Corryville, Cincinnati, Hamilton County, Ohio, 45267, United States "
249,University Of Manitoba Faculty Of M,-97.1607323,49.9044598,"Health Sciences Centre, Sherbrook Street, West Alexander, Daniel McIntyre, Winnipeg, Division No. 11, Manitoba, R3A 1T2, Canada "
250,Faculty Of Medicine Pontifical Univ,-68.8852108,12.1247899,"Ackerman N.V., 120, Santa Rosaweg, Vergenoegen bij Kolonchi, Seru Lora, Willemstad, Curaçao, 0000 CW, Nederland "
251,Faculty Of Medical Sciences Univers,-90.03061609999999,35.1408087,"Regional Medical Center, 877, Jefferson Avenue, Medical District, Dixie Homes, Memphis, Shelby County, West Tennessee, Tennessee, 38103, United States "
252,Faculty Of Med Hlth Sci Center Fede,-94.3734362,35.3830063,"University of Arkansas - Fort Smith, North 48th Street, Fort Smith, Sebastian County, Arkansas, 72903, United States "
253,Vanderbilt University School Of Med,-86.8025487,36.1422248,"Vanderbilt University, 2201, West End Avenue, Nashville-Davidson, Davidson County, Middle Tennessee, Tennessee, 37235, United States "
254,Southern Illinois University School,-89.2190956,37.7183998,"Pulliam Hall, 475, Clocktower Drive, Carbondale, Jackson County, Illinois, 62901, United States "
255,Beijing Medical University,116.3590679,39.9842658,"花园路, 花园路街道, 海淀区, 北京市, 100191, 中国 "
256,Emory University School Of Medicine,-84.3186209,33.7935014,"Emory Children's Center, 2015, Uppergate Drive, Emory Highlands, Druid Hills, Atlanta, DeKalb County, Georgia, 30322, United States "
257,University Of New Jersey School Of,-74.4340921,40.479983,"Cook Office Building, 55, Dudley Road, Feaster Park, New Brunswick, Middlesex County, New Jersey, 08901, United States "
258,Ceylon/sri Lanka Not Listed,80.77179699999999,7.873053999999999,"Nikawatawana, Matale District, Central Province, ශ්‍රී ලංකාව இலங்கை "
259,Rush Medical College Of Rush Univer,-87.6692353,41.8739883,"Rush University Medical Center, 1653, West Congress Parkway, Illinois Medical District, Near West Side, Chicago, West Chicago Township, Cook County, Illinois, 60612, United States "
260,Oral Roberts University,-95.9528284,36.0508093,"Oral Roberts University, University Avenue, Tulsa, Tulsa County, Oklahoma, 74136, United States "
261,Wayne State University School Of Me,-83.0556335,42.3544311,"Scott Hall, 541, East Canfield Street, Medical Center, Midtown, Detroit, Wayne County, Michigan, 48201, United States "
262,Medical College Madurai University,78.13699679999999,9.9288027,"Madurai Medical College, Panagal Salai, Anna Nagar, Madurai, Madurai South, Madurai District, Tamil Nadu, 625002, India "
263,Medical Academy Of Gdansk,18.6228077,54.3659002,"Uniwersyteckie Centrum Kliniczne, 7, Dębinki, Kolonia Przybyszewskiego, Aniołki, Gdańsk, województwo pomorskie, 80-952, Polska "
264,Indiana University School Of Medici,-86.16517139999999,39.7815613,"Fairbanks Hall, 340, West 10th Street, Fayette Street Conservation Area, Indianapolis, Marion County, Indiana, 46202, United States "
265,Temple University School Of Medicin,-75.15212269999999,40.0068582,"Temple University School of Medicine, 3500, North Broad Street, Nicetown, Philadelphia, Philadelphia County, Pennsylvania, 19140, United States "
266,University Of Arizona College Of Me,-110.9456546,32.2406085,"Banner University Medical Center Tucson, 1501, North Campbell Avenue, North University, Tucson, Pima County, Arizona, 85724, United States "
267,Mayo Medical School,-92.4668056,44.0223789,"Mayo Clinic, 2nd Avenue Southwest, Rochester, Olmsted County, Minnesota, 55903, United States "
268,Ks University Of Ks School Of Medicine,-97.3159489,37.7019635,"University of Kansas - School of Medicine Wichita Campus Kansas University Medical School, 1010, North Kansas Street, Wichita, Sedgwick County, Kansas, 66214, United States "
269,Ok College Of Osteo Medicine-ok State Univ,-96.0055344,36.1381886,"Oklahoma State University Center for Health Sciences, 1111, West 17th Street, West Tulsa, Tulsa, Tulsa County, Oklahoma, 74107, United States "
270,Ks Unidentified Ks School,-94.7165728,39.1311703,"F. L. Schlagle High School, Parallel Parkway Loop, Cornado, Kansas City, Wyandotte County, Kansas, 66104, United States "
271,Ia Univ Of Osteopathic Med-health Science,-93.662895,41.5833111,"Munroe Building, 3380, Grand Avenue, Grand Stratford Apartments, Des Moines, Polk County, Iowa, 50312, United States "
272,Mo University Of Mo School Of Medicine,-92.3284649,38.9381997,"1, Hospital Drive, Columbia, Columbia Township, Boone County, Missouri, 65212, United States "
273,"Univ Of Texas Med Branch, Galveston",-94.7775436,29.3116372,"University of Texas Medical Branch at Galveston, 301, 14th Street, Galveston, Galveston County, Texas, 77555, United States "
274,"Louisiana State Univ Sch Of Med, Ne",-90.0836789,29.956596,"Lions Eye Building, 2020, Gravier Street, Storyville, New Orleans, Orleans Parish, Louisiana, 70112, United States "
275,Faculty Of Medicine Autonomous Univ,-98.4920087,29.6123299,"Project Pollo, 18730, Tuscany Stone, San Antonio, Bexar County, Texas, 78258, United States "
276,"Wright State Univ Sch Of Med, Dayto",-84.0614409,39.7800535,"Lot 16, Center Road, Fairborn, Greene County, Ohio, 45435, United States "
277,"Louisiana State Univ Sch Of Med, Sh",-90.0836789,29.956596,"Lions Eye Building, 2020, Gravier Street, Storyville, New Orleans, Orleans Parish, Louisiana, 70112, United States "
278,"Tulane Univ Sch Of Med, New Orleans",-90.0769497,29.9548998,"South Liberty Street, Storyville, New Orleans, Orleans Parish, Louisiana, 70112, United States "
279,"Univ Of Alabama Sch Of Med, Birming",-86.8012835,33.5074457,"UAB Hospital, 1802, 6th Avenue South, Automotive Historic District, Five Points South, Birmingham, Jefferson County, Alabama, 35233, United States "
280,Bowman Gray School Of Medicine,-80.268608,36.0897369,"Wake Forest Baptist Medical Center, 1, Medical Center Boulevard, Ardmore, Winston-Salem, Forsyth County, North Carolina, 27157, United States "
281,University Of Rochester Medical Sch,-77.6269403,43.1230503,"University of Rochester Medical Center, 601, Elmwood Avenue, Genesee Valley Park, City of Rochester, Monroe County, New York, 14611, United States "
282,"The University Of Kansas, School Of",-95.2508066,38.9623867,"1154, West Campus Road, West Hills, Lawrence, Douglas County, Kansas, 66045, United States "
283,University Of Cape Town Faculty Of,18.4611991,-33.957652,"University Avenue, Rondebosch, Cape Town, City of Cape Town, Western Cape, 7700, South Africa "
284,Albany Medical College Of Union Uni,-73.77776349999999,42.6534295,"Albany Medical Center, 43, New Scotland Avenue, University Heights, City of Albany, Albany County, New York, 12208, United States "
285,Duke Univ,-78.9382286,36.0014258,"Perkins Library Bike Rack, Chapel Drive, Durham, Durham County, North Carolina, 27708, United States "
286,"Tufts Univ, Boston, Ma",-71.1182729,42.4085371,"Dowling Hall, 419, Boston Avenue, Medford Hillside, Medford, Middlesex County, Massachusetts, 02155, United States "
287,"Albany Med College, Ny",-73.77776349999999,42.6534295,"Albany Medical Center, 43, New Scotland Avenue, University Heights, City of Albany, Albany County, New York, 12208, United States "
288,"Loma Linda University , Ca",-117.2608213,34.0514353,"Loma Linda University, Anderson Street, Loma Linda, San Bernardino County, California, 92350, United States "
289,"Wvu, Morgantown Wv",-79.9697147,39.6480359,"West Virginia University Evansdale Campus, Caperton Trail, Morgantown, Monongalia County, West Virginia, 26506, United States "
290,"Northwestern Univ, Chicagi, Il",-87.62001529999999,41.8961511,"Northwestern University Chicago Campus, North Saint Clair Street, Magnificent Mile, Near North Side, Chicago, Cook County, Illinois, 60611, United States "
291,"University Of Minnesota, Minneapoli",-93.2277285,44.97399,"Southeast Washington Avenue, Minneapolis, Hennepin County, Minnesota, 55455, United States "
292,"Dartmouth Med School, Hanover, Nh",-72.28510849999999,43.7087283,"Remsen Medical Sciences Building, 66, College Street, Hanover, Grafton County, New Hampshire, 03755, United States "
293,Yale Univ,-72.92234309999999,41.3163244,"Humphrey-Whitney Bypass, New Haven, South Central Connecticut Planning Region, Connecticut, 06511, United States "
294,"Suny Syracuse, Ny",-76.1366182,43.0345102,"F. Franklin Moon Library, 111, Campus Drive, University Hill, City of Syracuse, Onondaga County, New York, 13210, United States "
295,"Tufts Univ, Ma",-71.1182729,42.4085371,"Dowling Hall, 419, Boston Avenue, Medford Hillside, Medford, Middlesex County, Massachusetts, 02155, United States "
296,"University Of Connecticut, Farmingt",-72.2539805,41.8077414,"Academic Way, West Campus, Storrs, Mansfield, Capitol Planning Region, Connecticut, 06269, United States "
297,"Virginia Commonwealth University, R",-77.4527359,37.5526695,"Stuart C. Siegel Center, 1200, West Broad Street, The Fan, Richmond, Virginia, 23220, United States "
298,"Cork University, Cork, Ireland",-8.492070499999999,51.893486,"University College Cork Main Campus, College Road, Gillabbey C, Cork, County Cork, Munster, T12 K8AF, Éire / Ireland "
299,"University Of Missouri, C0lumbia Mi",-83.8559083,44.0545635,"970, North Main Street, Omer, Arenac Township, Arenac County, Michigan, 48749, United States "
300,"Boston Univ, Ma",-71.1053991,42.3504997,"Boston University, Harry Agganis Way, Packard's Corner, Allston, Boston, Suffolk County, Massachusetts, 02215, United States "
301,"U Of Ma, Worcester",-71.764181,42.2782306,"Albert Sherman Center, 368, Plantation Street, Worcester, Worcester County, Massachusetts, 01653, United States "
302,"George Washington Univ, Washington",-77.0485992,38.8997145,"The George Washington University, 1918, F Street Northwest, Golden Triangle, Ward 2, Washington, District of Columbia, 20052, United States "
303,"Harvard Medical School, Boston, Ma",-71.104215,42.3356451,"Harvard Medical School, 25, Shattuck Street, Fenway / Kenmore, Boston, Suffolk County, Massachusetts, 02115, United States "
304,"Univ.  Med. & Dent., New Jersey",-74.4104351,40.5206921,"Kilmer Road North, Lindenau, Edison, Middlesex County, New Jersey, 08817, United States "
305,"Univ Of Vt, Burlington",-73.1964637,44.4778528,"University of Vermont, Williston Road, South Burlington, Chittenden County, Vermont, 05403, United States "
306,Georgetown University School Of Med,-77.0770304,38.9118852,"Georgetown University, 3700, O Street Northwest, Peter Square, Georgetown, Ward 2, Washington, District of Columbia, 20057, United States "
307,"Georgetown University, Washington,",-77.07225849999999,38.9076089,"Georgetown University, 3700, O Street Northwest, Peter Square, Georgetown, Ward 2, Washington, District of Columbia, 20057, United States "
308,"University Of Vermont, Burlington,",-73.1964637,44.4778528,"University of Vermont, Williston Road, South Burlington, Chittenden County, Vermont, 05403, United States "
309,"State Univ Of New York At Buffalo,",-78.87901889999999,42.9325073,"SUNY College at Buffalo, Grant Street, Buffalo, Erie County, New York, 14207, United States "
310,"Yale, New Haven Ct",-72.9355179,41.3037776,"Yale New Haven Hospital, 20, York Street, Downtown, New Haven, South Central Connecticut Planning Region, Connecticut, 06510, United States "
311,"U Of Vt, Burlington",-73.1964637,44.4778528,"University of Vermont, Williston Road, South Burlington, Chittenden County, Vermont, 05403, United States "
312,"University Of Vermont, Burlington,v",-73.1964637,44.4778528,"University of Vermont, Williston Road, South Burlington, Chittenden County, Vermont, 05403, United States "
313,"U Autonoma De Guadalajara, Mexico",-103.4181787,20.6946969,"Universidad Autonoma de Guadalajara, Calle Bosque del Eucalipto, Puerta del Bosque, Zapopan, Jalisco, 44100, México "
314,"Duke Univ, Durham, Nc",-78.9382286,36.0014258,"Perkins Library Bike Rack, Chapel Drive, Durham, Durham County, North Carolina, 27708, United States "
315,"University Of California San Diego,",-117.2340135,32.8800604,"University of California, San Diego, 9500, Gilman Drive, San Diego, San Diego County, California, 92093, United States "
316,University Of Rochester School Of M,-77.6269403,43.1230503,"University of Rochester Medical Center, 601, Elmwood Avenue, Genesee Valley Park, City of Rochester, Monroe County, New York, 14611, United States "
317,"Albany Medical College, Albany, Ny",-73.77776349999999,42.6534295,"Albany Medical Center, 43, New Scotland Avenue, University Heights, City of Albany, Albany County, New York, 12208, United States "
318,"Tufts University, Boston, Ma",-71.1182729,42.4085371,"Dowling Hall, 419, Boston Avenue, Medford Hillside, Medford, Middlesex County, Massachusetts, 02155, United States "
319,"University Of Massachusetts, Worces",-71.764181,42.2782306,"Albert Sherman Center, 368, Plantation Street, Worcester, Worcester County, Massachusetts, 01653, United States "
320,"University Of California, San Franc",-122.4401581,37.7854795,"UCSF Mount Zion Campus, 1600, Divisadero Street, Western Addition, San Francisco, California, 94115, United States "
321,"University Of Utah, Salt Lake City,",-111.8421021,40.7649368,"Student Life Way, Salt Lake City, Salt Lake County, Utah, 84112, United States "
322,"Dartmouth Medical School, Hanover,",-72.28510849999999,43.7087283,"Remsen Medical Sciences Building, 66, College Street, Hanover, Grafton County, New Hampshire, 03755, United States "
323,"Cornell Univ, Ny",-76.4735027,42.4534492,"McClintock Hall, 224, Cradit Farm Drive, Ward 5, Town of Ithaca, Tompkins County, New York, 14853, United States "
324,"Boston University, Ma",-71.1053991,42.3504997,"Boston University, Harry Agganis Way, Packard's Corner, Allston, Boston, Suffolk County, Massachusetts, 02215, United States "
325,"National University Of Ireland , Ga",-9.0617372,53.27915489999999,"South Campus, O'Shaughnessy Bridge, Nun's Island, Cathair na Gaillimhe, County Galway, Connacht, H91 E2A2, Éire / Ireland "
326,"U Of Ut, Salt Lake City",-111.8421021,40.7649368,"Student Life Way, Salt Lake City, Salt Lake County, Utah, 84112, United States "
327,"The Pennsylvania State University,",-77.8599084,40.7982133,"Penn State University, Toftrees Avenue, Toftrees, Patton Township, Centre County, Pennsylvania, 16803, United States "
328,"Duke University School Of Medicine,",-78.9403039,36.0007035,"Duke University, Cameron Boulevard, Durham, Durham County, North Carolina, 27708, United States "
329,"University Of Vt, Burlington",-73.1964637,44.4778528,"University of Vermont, Williston Road, South Burlington, Chittenden County, Vermont, 05403, United States "
330,Addis Ababa University,38.7636817,9.0335063,"AAU College of Natural Sciences, King George VI Avenue, Amist Kilo, አራት ኪሎ / Arat Kilo, አዲስ አበባ / Addis Ababa, Arada, አዲስ አበባ / Addis Ababa, አዲስ አበባ, 0251, ኢትዮጵያ "
331,"Case Western Reserve University, Cl",-81.6083838,41.5043413,"Hudson Relays Rocks, 10900, Euclid Avenue, University Circle, Cleveland, Cuyahoga County, Ohio, 44106, United States "
332,Northeastern Ohio University Colleg,-83.83284809999999,40.7656634,"Brandi Place, Ada, Liberty Township, Hardin County, Ohio, 45810, United States "
333,University Of Vermont College Of Me,-73.1937427,44.47825659999999,"Dana Medical Library, 81, Colchester Avenue, Burlington, Chittenden County, Vermont, 05404, United States "
334,"Mount Sinai School Of Medicine, New",-73.95374140000001,40.79001179999999,"The Mount Sinai Hospital, 1, Madison Avenue, Manhattan Community Board 11, Manhattan, New York County, City of New York, New York, 10129, United States "
335,Univ Of Rochester School Of Medicin,-77.6269403,43.1230503,"University of Rochester Medical Center, 601, Elmwood Avenue, Genesee Valley Park, City of Rochester, Monroe County, New York, 14611, United States "
336,"Suny Health Science Ctr, Ny",-73.94616529999999,40.6546653,"SUNY Downstate Campus, Linden Boulevard, Brooklyn Community District 17, Brooklyn, Kings County, City of New York, New York, 11203, United States "
337,"Yale University, New Haven , Ct",-72.92234309999999,41.3163244,"Humphrey-Whitney Bypass, New Haven, South Central Connecticut Planning Region, Connecticut, 06511, United States "
338,"Emory Univ,  Atlanta Ga",-84.32224,33.7971368,"Clifton Tower, 1501, Gatewood Road Northeast, Atlanta, DeKalb County, Georgia, 30322, United States "
339,"Univ Of Wisconsin, Madison",-89.4124875,43.076592,"Agricultural Heating Station, 1535, Observatory Drive, Madison, Dane County, Wisconsin, 53706, United States "
340,"Harvard, Boston",-71.10347689999999,42.33690199999999,"Harvard Medical School, 25, Shattuck Street, Fenway / Kenmore, Boston, Suffolk County, Massachusetts, 02115, United States "
341,"Yale Univ, Ct",-72.92234309999999,41.3163244,"Humphrey-Whitney Bypass, New Haven, South Central Connecticut Planning Region, Connecticut, 06511, United States "
342,"New York Medical College, Valhalla,",-73.81007269999999,41.0852704,"New York Medical College, Plaza West, Town of Mount Pleasant, Westchester County, New York, 10532, United States "
343,"Case Western Reserve, Cleveland",-81.6083838,41.5043413,"Hudson Relays Rocks, 10900, Euclid Avenue, University Circle, Cleveland, Cuyahoga County, Ohio, 44106, United States "
344,Case Western Reserve Univ,-81.6083838,41.5043413,"Hudson Relays Rocks, 10900, Euclid Avenue, University Circle, Cleveland, Cuyahoga County, Ohio, 44106, United States "
345,"U Of Nm, Albuquerque",-106.6197812,35.0843187,"University of New Mexico, Redondo Drive Northeast, Nob Hill, Albuquerque, Bernalillo County, New Mexico, 87131, United States "
346,Suny Health Science Ctr At Syracuse,-76.139862,43.04212950000001,"750, East Adams Street, University Hill, City of Syracuse, Onondaga County, New York, 13210, United States "
347,"Univ Of Connecticut School Of Med,",-72.7912369,41.7298363,"University of Connecticut Health Center, 263, Farmington Avenue, Farmington, Capitol Planning Region, Connecticut, 06030, United States "
348,"Dartmouth Med Sch, Hanover Nh",-72.28510849999999,43.7087283,"Remsen Medical Sciences Building, 66, College Street, Hanover, Grafton County, New Hampshire, 03755, United States "
349,Umdnj-robert Wood Johnson Medical C,-74.4499806,40.4951929,"Robert Wood Johnson University Hospital, 1, Paterson Street, New Brunswick, Middlesex County, New Jersey, 08901, United States "
350,"Abraham Lincoln School Of Medicine,",-87.6445385,41.92436430000001,"Lincoln Elementary School, 615, West Kemper Place, Mid-North District, Lincoln Park, Chicago, Cook County, Illinois, 60614, United States "
351,"Univ Of Ks, Lawrence",-95.2557961,38.9543439,"Central District Parking Garage, Ousdahl Road, Lawrence, Douglas County, Kansas, 66045, United States "
352,"Georgetown Univ, Washington Dc",-77.07225849999999,38.9076089,"Georgetown University, 3700, O Street Northwest, Peter Square, Georgetown, Ward 2, Washington, District of Columbia, 20057, United States "
353,"Jefferson Med College, Philadelphia",-75.1578782,39.94875589999999,"Thomas Jefferson University Hospital, 111, South 11th Street, Gayborhood, Center City, Philadelphia, Philadelphia County, Pennsylvania, 19107, United States "
354,University Of California,-118.4438495,34.0699182,"University of California, Los Angeles, Bellagio Road, Bel Air, Los Angeles, Los Angeles County, California, 90049, United States "
355,Harvard Medical School,-71.104215,42.3356451,"Harvard Medical School, 25, Shattuck Street, Fenway / Kenmore, Boston, Suffolk County, Massachusetts, 02115, United States "
356,Medical College Of Virginia Commonw,-77.430266,37.5397222,"VCU Medical Center, 1250, East Marshall Street, Shockoe Slip, Richmond, Virginia, 23219, United States "
357,"Penn State, Hershey , Pa",-76.6765984,40.2637903,"Penn State Health Milton S. Hershey Medical Center, 500, University Drive, Hershey, Dauphin County, Pennsylvania, 17033, United States "
358,"Case Western Reserve Univ, Clevelan",-81.6083838,41.5043413,"Hudson Relays Rocks, 10900, Euclid Avenue, University Circle, Cleveland, Cuyahoga County, Ohio, 44106, United States "
359,"Sri Venkateswara University, Tirupa",79.3978049,13.6288113,"Tirupati, Tirupati (Urban), Tirupati District, Andhra Pradesh, 517500, India "
360,"Indiana Univ, Indianapolis",-86.17626059999999,39.773929,"IUPUI Campus Center, 420, University Boulevard, Historic Ransom Place, Indianapolis, Marion County, Indiana, 46202, United States "
361,"U Of Pa, Philadelphia",-75.1932137,39.9522188,"University of Pennsylvania, Market Street, Powelton Village, Philadelphia, Philadelphia County, Pennsylvania, 19104, United States "
362,"U Of Bologna, Italy",11.352376,44.4969129,"Università di Bologna, Via Quirino Maiorana, Irnerio, Santo Stefano, Bologna, Emilia-Romagna, 40126, Italia "
363,Dartmouth Med School,-72.28510849999999,43.7087283,"Remsen Medical Sciences Building, 66, College Street, Hanover, Grafton County, New Hampshire, 03755, United States "
364,"Universityof The Philippines, Manil",120.9853666,14.5777477,"Philippine General Hospital, Taft Avenue, Barangay 669, Ermita, Fifth District, Manila, Capital District, Metro Manila, 1000, Pilipinas / Philippines "
365,"Comenius Univ Sch Of Med, Bratislav",17.1208465,48.1507611,"Lekárska fakulta UK, 24, Špitálska, Krásna Ves, Oblasť Dunajská, Bratislava, okres Bratislava I, Bratislava, Bratislavský kraj, 813 72, Slovensko "
366,"Nyu, Ny, Ny",-73.9964609,40.72951339999999,"New York University, West 8th Street, Washington Square Village, Manhattan Community Board 2, Manhattan, New York County, City of New York, New York, 10011, United States "
367,"Albany Med College Of Union Univ, N",-73.77776349999999,42.6534295,"Albany Medical Center, 43, New Scotland Avenue, University Heights, City of Albany, Albany County, New York, 12208, United States "
368,"U Of Chicago, Il",-87.6003953,41.7904484,"The University of Chicago, 5801, South Ellis Avenue, Hyde Park, Chicago, Hyde Park Township, Cook County, Illinois, 60637, United States "
369,"Mcgill University, Montreal, Quebec",-73.5771511,45.50478469999999,"McGill University, Avenue des Pins Ouest, Ville-Marie, Montréal, Agglomération de Montréal, Montréal (région administrative), Québec, H2W 1S4, Canada "
370,"Central University Of Venezuela, Ca",-66.8913397,10.4899673,"Universidad Central de Venezuela, Avenida Cataluña, Las Acacias, Caracas, Parroquia San Pedro, Municipio Libertador, Distrito Capital, 1040, Venezuela "
371,"Albany Med College, Albany, Ny",-73.77776349999999,42.6534295,"Albany Medical Center, 43, New Scotland Avenue, University Heights, City of Albany, Albany County, New York, 12208, United States "
372,"Boston University, Boston, Ma",-71.1053991,42.3504997,"Boston University, Harry Agganis Way, Packard's Corner, Allston, Boston, Suffolk County, Massachusetts, 02215, United States "
373,Georgetown University Medical Schoo,-77.0770304,38.9118852,"Georgetown University, 3700, O Street Northwest, Peter Square, Georgetown, Ward 2, Washington, District of Columbia, 20057, United States "
374,Univeristy Of Cincinnati College Of,-84.51495039999999,39.1329219,"University of Cincinnati Main Campus, Jefferson Avenue, Corryville, Cincinnati, Hamilton County, Ohio, 45221, United States "
375,"Tufts Med School, Boston, Ma",-71.0622717,42.3500802,"Tufts University, 274, Tremont Street, Bay Village, Boston, Suffolk County, Massachusetts, 02111, United States "
376,Fl Unidentified Fl School,-84.22253599999999,30.384023,"Florida State University School, 3000, School House Road, Southwood, Tallahassee, Leon County, Florida, 32311, United States "
377,Wv Wv University School Of Medicine,-79.9577029,39.6547051,"Ruby Memorial Hospital, 1, Medical Center Drive, The Flatts, Evansdale, Morgantown, Monongalia County, West Virginia, 26506, United States "
378,Tx Unidentified Tx School,-102.1632718,31.8606058,"West County Road 170, Midland County, Texas, 79706, United States "
379,Pa Unidentified Pa School,-77.864224,40.7981602,"Pollock Road, State College, Centre County, Pennsylvania, 16802, United States "
380,Nj Robert W Johnson Medical School,-74.4492739,40.494609,"Clinical Academic Building, 125, Paterson Street, New Brunswick, Middlesex County, New Jersey, 08901, United States "
381,"University Of California, San Diego",-117.2340135,32.8800604,"University of California, San Diego, 9500, Gilman Drive, San Diego, San Diego County, California, 92093, United States "
382,University Of Massachusetts Medical,-71.7633073,42.2786007,"UMass Memorial Medical Center - University Campus, 55, Lake Avenue, Lakeview, Worcester, Worcester County, Massachusetts, 01655, United States "
383,Wright State University School Of M,-84.0614409,39.7800535,"Lot 16, Center Road, Fairborn, Greene County, Ohio, 45435, United States "
384,Columbia Univ. College Of Physician,-92.3334072,38.9432581,"WG11, University Heights, Columbia, Boone County, Missouri, 65211, United States "
385,Yale University School Of Medicine,-72.9338698,41.30323,"Sterling Hall of Medicine, 111, Cedar Street, Downtown, New Haven, South Central Connecticut Planning Region, Connecticut, 06520, United States "
386,"Medical College Of Virginia, Virgin",-77.4301929,37.5389504,"VCU Medical Center, 1250, East Marshall Street, Shockoe Slip, Richmond, Virginia, 23219, United States "
387,"N.y. College Of Osteo. Med., N.y. I",-90.67842290000002,35.842162,"Wilson Hall, 2405, Aggie Road, Jonesboro, Craighead County, Arkansas, 72467, United States "
388,Cornell University Medical College,-73.9549555,40.7644849,"Weill Medical College of Cornell University, 1300, York Avenue, Manhattan Community Board 8, Manhattan, New York County, City of New York, New York, 10021, United States "
389,"Grant Medical College, University O",72.8336083,18.9630684,"J. J. Hospital, 2nd Peerkhan Street, E Ward, Zone 1, Mumbai, Mumbai City, Maharashtra, 400008, India "
390,"St John's Medical College, Bangalor",77.61974529999999,12.9308589,"St. John's Medical College, Sarjapur Road, SBI Colony, Koramangala, South Zone, Bengaluru, Bangalore South, Bengaluru Urban District, Karnataka, 560034, India "
391,"Karolinska Institute, Medical Facul",18.0280028,59.3476805,"Nobels väg, Karlberg, Solna Kyrkby, Solna kommun, Stockholms län, 171 65, Sverige "
392,Boston University School Of Medicin,-71.072414,42.3364043,"Boston University Medical Campus, 715, Albany Street, South End, Boston, Suffolk County, Massachusetts, 02118, United States "
393,"Sri Krishna Medical College, Bihar",85.3934566,26.1669211,"Sri Krishna Memorial College and Hospital, East-West Corridor, Muzaffarpur, Muzaffarpur District, Bihar, 842004, India "
394,"U. Of Health Sciences, Coll. Of Ost",-96.0055344,36.1381886,"Oklahoma State University Center for Health Sciences, 1111, West 17th Street, West Tulsa, Tulsa, Tulsa County, Oklahoma, 74107, United States "
395,University Of Pittsburgh School Of,-79.9533269,40.440812,"Mervis Hall, 3950, Roberto Clemente Drive, Oakland, Central Oakland, Pittsburgh, Allegheny County, Pennsylvania, 15260, United States "
396,"Bangalore Medical College, Bangalor",77.5746762,12.9593232,"Bangalore Medical College and Research Institute, Krishna Rajendra Road, Chamarajapete, Chamrajapet, West Zone, Bengaluru, Bangalore North, Bengaluru Urban District, Karnataka, 560002, India "
397,"Univ. Of California,san Francisco,s",-122.4587106,37.7626459,"University of California, San Francisco, Historic Trail, Forest Knolls, San Francisco, California, 94131, United States "
398,The University Of Tennessee College,-83.92945639999999,35.9544013,"University of Tennessee, Knoxville, Volunteer Boulevard, University of Tennessee, Knoxville, Knox County, East Tennessee, Tennessee, 37996, United States "
399,"Maulana Azad Medical College, Unive",77.24007089999999,28.6357398,"Maulana Azad Medical College, Mir Dard Marg, Rouse Avenue, Kotwali Tehsil, Central Delhi District, Delhi, 110002, India "
400,Coimbatore Medical College,77.02389889999999,11.028706,"Argus Nagar, Ward 37, East Zone, Coimbatore, Coimbatore North, Coimbatore District, Tamil Nadu, 641001, India "
401,Case Western Reserve University Sch,-81.6083838,41.5043413,"Hudson Relays Rocks, 10900, Euclid Avenue, University Circle, Cleveland, Cuyahoga County, Ohio, 44106, United States "
402,"Sackler School Of Medicine, Tel Avi",34.8056661,32.1166516,"אוניברסיטת תל אביב, איילון צפון, תל אביב - יפו, אוניברסיטת ת א, תל אביב-יפו, נפת תל אביב, מחוז תל אביב, 5253527, ישראל"
403,Northwestern University School Of M,-87.67148309999999,42.0518787,"Northwestern University, 633, Clark Street, Downtown, Evanston, Evanston Township, Cook County, Illinois, 60208, United States "
404,"Mt. Sinai School Of Medicine, New Y",-73.95374140000001,40.79001179999999,"The Mount Sinai Hospital, 1, Madison Avenue, Manhattan Community Board 11, Manhattan, New York County, City of New York, New York, 10129, United States "
405,"University Of Texas, Southwestern M",-96.8442985,32.8157524,"Forest Park Road, Dallas, Dallas County, Texas, 75235, United States "
406,Univ Of California School Of Medici,-117.3510647,34.0771542,"1490, West San Bernardino Avenue, Colton, San Bernardino County, California, 92324, United States "
407,University Of Minn. Med. Sch. In Mi,-83.7326064,42.2840011,"University of Michigan Medical Center, East Medical Center Drive, Ann Arbor, Washtenaw County, Michigan, 48109, United States "
408,University Of Stellenbosch Faculty,18.864447,-33.9328078,"Universiteit Stellenbosch, Kleinweide, Universiteits-Oord, Stellenbosch Ward 7, Stellenbosch, Stellenbosch Local Municipality, Cape Winelands District Municipality, Western Cape, 7599, South Africa "
409,East Carolina University School Of,-77.3665364,35.6068806,"ECU Main Campus, 1000, East 5th Street, The Grid, Greenville, Pitt County, North Carolina, 27858, United States "
410,Catholic University Of Chile Facult,-70.64054639999999,-33.4422709,"Centro de Especialidades Médicas UC, 352, Marcoleta, Barrio San Borja, Santiago, Provincia de Santiago, Región Metropolitana de Santiago, 6500808, Chile "
411,American University Of Beirut Schoo,35.4760925,33.9009116,"شارع شبلي العريان, رأس بيروت, دار المريسة, محافظة بيروت, 2034 1111, لبنان "
412,Hahnemann University School Of Medi,-75.1798578,40.0194915,"Drexel University Queens Lane Campus, The Oak Road, East Falls, Philadelphia, Philadelphia County, Pennsylvania, 19129, United States "
413,University College Of Dublin Facult,-6.2215897,53.3097268,"University College Dublin (Belfield Campus), Roebuck Downs, Friarland, Clonskeagh-Windy Arbour DED 1986, Dundrum, Dún Laoghaire-Rathdown, County Dublin, Leinster, D14 Y5V6, Éire / Ireland "
414,Free University Of Brussels Faculty,4.3969074,50.8222329,"Vrije Universiteit Brussel – Campus Etterbeek, 2, Boulevard de la Plaine - Pleinlaan, Petite Suisse - Klein-Zwitserland, Ixelles - Elsene, Brussel-Hoofdstad - Bruxelles-Capitale, Région de Bruxelles-Capitale - Brussels Hoofdstedelijk Gewest, 1050, België / Belgique / Belgien "
415,St. Louis University School Of Medi,-90.2377947,38.6224549,"Saint Louis University South Campus, Ranken Avenue, Midtown, Saint Louis, Missouri, 63103, United States "
416,Dartmouth Medical School,-72.28510849999999,43.7087283,"Remsen Medical Sciences Building, 66, College Street, Hanover, Grafton County, New Hampshire, 03755, United States "
417,Univ. Of Rochester School Of Medici,-77.6269403,43.1230503,"University of Rochester Medical Center, 601, Elmwood Avenue, Genesee Valley Park, City of Rochester, Monroe County, New York, 14611, United States "
418,"University Of Florida, School Of Me",-82.3434662,29.6398333,"UF Health Shands Hospital, 1600, Depot Avenue Rails-to-Trails Bike Path, Gainesville, Alachua County, Florida, 32608, United States "
419,Justus Liebig University,8.6771403,50.5804674,"Universitätshauptgebäude, 23, Ludwigstraße, Gießen, Landkreis Gießen, Hessen, 35390, Deutschland "
420,Duke University School Of Medicine,-78.9403039,36.0007035,"Duke University, Cameron Boulevard, Durham, Durham County, North Carolina, 27708, United States "
421,George Washington Univ Sch Of Med &,-77.0509652,38.9002128,"Ross Hall, 2300, I Street Northwest, Foggy Bottom, Ward 2, Washington, District of Columbia, 20037, United States "
422,"College Of Human Medicine, Michigan",-85.668257,42.9708759,"Michigan Street Northeast, Grand Rapids, Kent County, Michigan, 49506, United States "
423,"School Of Medicine, State Univ. Of",-90.0836789,29.956596,"Lions Eye Building, 2020, Gravier Street, Storyville, New Orleans, Orleans Parish, Louisiana, 70112, United States "
424,"University Of Texas Medical School,",-98.5754327,29.5075039,"University of Texas Health Science Center at San Antonio - Long Campus, 7703, Floyd Curl Drive, South Texas Medical Center, San Antonio, Bexar County, Texas, 78229, United States "
425,"School Of Medicine, West Virginia U",-79.9577029,39.6547051,"Ruby Memorial Hospital, 1, Medical Center Drive, The Flatts, Evansdale, Morgantown, Monongalia County, West Virginia, 26506, United States "
426,College Of Medicine Cebu Institute,123.8966952,10.307164,"Cebu Velez General Hospital, 41, F. Ramos Street, Santa Cruz, Cebu City, Central Visayas, 6000, Pilipinas / Philippines "
427,"Faculte De Medecine, Universite De",-0.6085259,44.8247697,"Centre de Génomique Fonctionnelle de Bordeaux, 146, Rue Léo Saignat, Saint-Augustin, Saint-Augustin - Tauzin - Alphonse Dupeux, Bordeaux, Gironde, Nouvelle-Aquitaine, France métropolitaine, 33000, France "
428,University Of Toronto Faculty Of Me,-79.39350089999999,43.66080050000001,"University of Toronto, Harbord Street, Harbord Village, University—Rosedale, Old Toronto, Toronto, Golden Horseshoe, Ontario, M5S 1G4, Canada "
429,"Faculty Of Health Sciences, Univers",-89.9355157,35.1181468,"The University of Memphis, Herzog Street, Normal, Memphis, Shelby County, West Tennessee, Tennessee, 38111, United States "
430,University Of Virginia School Of Me,-78.5009733,38.0316075,"University of Virginia Medical Center, 1215, Lee Street, Jefferson Park Avenue, Starr Hill, Charlottesville, Virginia, 22908, United States "
431,State Univ Of New York Upstate Medi,-76.139862,43.04212950000001,"750, East Adams Street, University Hill, City of Syracuse, Onondaga County, New York, 13210, United States "
432,University Of North Carolina School,-79.042013,35.9089887,"Van Hecke-Wettach Hall, 160, Ridge Road, Baby Hollow, Chapel Hill, Orange County, North Carolina, 27514, United States "
433,Louisiana State University School O,-91.1800023,30.4132579,"Tower Drive, Baton Rouge, East Baton Rouge Parish, Louisiana, 70803, United States "
434,"Robert Wood Johnson Medical School,",-74.4492739,40.494609,"Clinical Academic Building, 125, Paterson Street, New Brunswick, Middlesex County, New Jersey, 08901, United States "
435,"School Of Med, State Univ Of Ny At",-73.9466278,40.6550204,"SUNY Downstate Campus, Linden Boulevard, Brooklyn Community District 17, Brooklyn, Kings County, City of New York, New York, 11203, United States "
436,"Sawai Man Singh Medical College, Un",75.81899059999999,26.9057698,"Dhado Ka Bagh, Adarsh Nagar, Jaipur, Jaipur Municipal Corporation, Jaipur Tehsil, Jaipur District, Rajasthan, 302004, India "
437,The Ohio State University College O,-83.0304546,40.0066723,"The Ohio State University, 281, West Lane Avenue, Upper Arlington Historic District, Columbus, Sharon, Franklin County, Ohio, 43210, United States "
438,Superior Institute Of Medical Scien,-94.5905582,39.0649329,"3444, Broadway Boulevard, Hanover Place, Westport, Kansas City, Jackson County, Missouri, 64111, United States "
439,"Centre Med Univ, Fac Of Med, Geneve",6.1513781,46.1937484,"CMU (Centre Médical Universitaire), Rue Lombard, Plainpalais, Genève, 1206, Schweiz/Suisse/Svizzera/Svizra "
440,The University Of Witwatersrand Med,28.0463065,-26.1762139,"University of the Witwatersrand Medical School, Jubilee Street, Johannesburg Ward 67, Johannesburg, City of Johannesburg Metropolitan Municipality, Gauteng, 2001, South Africa "
441,"Government Medical College, Baroda",73.1918261,22.3045676,"Medical College Hospital, Baroda, Kothi Road, Nava Bazaar, Vadodara, Vadodara Rural Taluka, Vadodara District, Gujarat, 390001, India "
442,Medical Academy In Bialystok,23.1653094,53.13058119999999,"Pałac Branickich, 1, Jana Kilińskiego, Centrum, Białystok, województwo podlaskie, 15-089, Polska "
443,Meharry Medical College,-86.80638309999999,36.1675072,"Nashville General Hospital, 1818, Albion Street, Nashville-Davidson, Davidson County, Middle Tennessee, Tennessee, 37208, United States "
444,Brown University School Of Medicine,-71.4084642,41.8189032,"Brown University, Wade Street, Fox Point, Providence, Providence County, Rhode Island, 02912, United States "
445,National College Of Medicine Of Sha,-88.0142888,41.86190269999999,"National College of Chiropractic, South Highland Avenue, Lombard, DuPage County, Illinois, 60148, United States "
446,University Of Pahlavi Faculty Of Me,52.5584207,29.6237155,"دانشکده علوم, گلستان, حافظیه, منطقه ۳, شیراز, بخش مرکزی شیراز, شهرستان شیراز, استان فارس, 71358-67315, ایران "
447,Leningrad Pediatric Medical Institu,30.3423098,59.9774032,"Санкт-Петербургский государственный педиатрический медицинский университет, 16, Кантемировская улица, Выборгская сторона, округ Сампсониевское, Санкт-Петербург, Северо-Западный федеральный округ, 194100, Россия "
448,"Faculty Of Medicine, University Of",-95.3371084,29.7115598,"Medical Circle, Houston, Harris County, Texas, 77204, United States "
449,Isfahan Medical School,51.6617328,32.6149556,"منطقه ۵, اصفهان, بخش مرکزی شهرستان اصفهان, شهرستان اصفهان, استان اصفهان, 81739-65711, ایران "
450,"Dow Med. Coll., Univ. Of Karachi",67.0107885,24.857459,"Dow University of Health Sciences, Punjrapur Street, Aram Bagh Furniture Market, صدر ٹاؤن, ضلع کراچی جنوبی, کراچی ڈویژن, سندھ, 72500, پاکستان "
451,"Universidad Central De Venezuela, C",-66.8913397,10.4899673,"Universidad Central de Venezuela, Avenida Cataluña, Las Acacias, Caracas, Parroquia San Pedro, Municipio Libertador, Distrito Capital, 1040, Venezuela "
452,Institute Of Medicine & Pharmacy In,-89.532344,34.364397,"Thad Cochran Research Center, 106, University Avenue, Lafayette County, Mississippi, 38677, United States "
453,Autonomous University Of Guadalajar,-106.444268,31.7386889,"Calle Monumental, Ciudad Juárez, Juárez, Chihuahua, 32310, México "
454,University Of Maryland School Of Me,-76.625715,39.2889604,"Bressler Research Building, 655, West Baltimore Street, Chinatown, Sowebo, Baltimore, Maryland, 21201, United States "
455,Cincinnati College Of Medicine And,-84.50374269999999,39.1385503,"University of Cincinnati Medical Campus, Eden Avenue, Pill Hill, Corryville, Cincinnati, Hamilton County, Ohio, 45267, United States "
456,"Facultad De Med, Univ De La Republi",-100.3481985,25.68959,"UANL Campus Ciencias de la Salud, Calle León, Mitras Centro, Monterrey, Nuevo León, 64020, México "
457,University Of Rome Medical School,-85.1898093,34.2649285,"49, Hamilton Avenue, Rome, Floyd County, Georgia, 30165, United States "
458,"University Of Athens, School Of Med",23.7650334,37.9845902,"Γενικό Νοσοκομείο Αθηνών Λαϊκό, Γουλιαμου Δημ., Γουδή, Αμπελόκηποι, 7η Κοινότητα Αθηνών, Αθήνα, Δήμος Αθηναίων, Περιφερειακή Ενότητα Κεντρικού Τομέα Αθηνών, Περιφέρεια Αττικής, Αποκεντρωμένη Διοίκηση Αττικής, 115 27, Ελλάς"
459,First Moscow Medical Institute,37.571717,55.731551,"Первый Московский государственный медицинский университет им. И. М. Сеченова, Малая Пироговская улица, Квартал №538, район Хамовники, Москва, Центральный федеральный округ, 119435, Россия "
460,The Pennsylvania State Univ. Colleg,-77.8599084,40.7982133,"Penn State University, Toftrees Avenue, Toftrees, Patton Township, Centre County, Pennsylvania, 16803, United States "
461,Lake Erie College Of Osteopathic Me,-82.4333463,27.4520256,"Lake Erie College of Osteopathic Medicine, Lakewood Ranch Boulevard, Lakewood Ranch, Manatee County, Florida, 34211, United States "
462,Medical College Of Ohio At Toledo,-83.6169783,41.6193783,"The University of Toledo Health Science Campus, 3000, Winnette Drive, Toledo, Lucas County, Ohio, 43614, United States "
463,"Faculty Of Medicine, Ferdowsi Unive",-88.7625257,41.9404241,"Engineering Building, 590, Garden Road, DeKalb, DeKalb Township, DeKalb County, Illinois, 60115, United States "
464,University Of The East,120.9889085,14.6017243,"University of the East, C. M. Recto Avenue, 391, Quiapo, Third District, Manila, Capital District, Metro Manila, 1001, Pilipinas / Philippines "
465,The University Of New Mexico School,-106.6185569,35.0935813,"University Of New Mexico North Campus, Yale Boulevard Northeast, Nob Hill, Albuquerque, Bernalillo County, New Mexico, 87131, United States "
466,"Government Medical College, Gulbarg",-97.8210314,30.520908,"Discovery Boulevard, Cedar Park, Williamson County, Texas, 78613, United States "
467,The Medical College Of Pennsylvania,-75.1798578,40.0194915,"Drexel University Queens Lane Campus, The Oak Road, East Falls, Philadelphia, Philadelphia County, Pennsylvania, 19129, United States "
468,Mi Mi State University Of Human Medicine,-85.668257,42.9708759,"Michigan Street Northeast, Grand Rapids, Kent County, Michigan, 49506, United States "
469,Tn Meharry Medical College School Of Med,-86.80638309999999,36.1675072,"Nashville General Hospital, 1818, Albion Street, Nashville-Davidson, Davidson County, Middle Tennessee, Tennessee, 37208, United States "
470,Fn Montserrat (west Indies),-62.1923041,16.7432065,"Saint Georges, Montserrat "
471,Fn Australia,151.2052607,-33.8670894,"Jet Cycles, 80, Clarence Street, Quay Quarter, Sydney, Council of the City of Sydney, New South Wales, 2000, Australia "
472,Fn Hungary,19.0493895,47.482674,"Gellért-hegyi műteremház, 12-14, Kelenhegyi út, Gellérthegy, XI. kerület, Budapest, Közép-Magyarország, 1118, Magyarország "
473,Fn Paraguay,-57.55348279999999,-25.160508,"Fortín Toledo, Villa Hayes, Presidente Hayes, Región Occidental, Paraguay / Paraguái "
474,Fn Dominican Republic,-69.8314231,18.511181,"Calle Juan Isidro Perez, Cancino II, Residencial Rosario Mieses, Santo Domingo Este, Santo Domingo, 11801, República Dominicana "
475,Nd University Of Nd School Of Medicine,-97.0683041,47.9321064,"School of Medicine and Health Sciences, 1301, North Columbia Road, Grand Forks, Grand Forks County, North Dakota, 58203, United States "
476,Fn Finland,24.9498636,60.1769489,"Pitkänsillanranta, Siltasaari, Kallio, Keskinen suurpiiri, Helsinki, Helsingin seutukunta, Uusimaa, Etelä-Suomen aluehallintovirasto, Manner-Suomi, 00530, Suomi / Finland "
477,Il Univ Of Il Champaign College Of Medicine,-88.2252963,40.1085249,"524, South Mathews Avenue, Urbana, Champaign County, Illinois, 61801, United States "
478,Sd University Of Sd School Of Medicine,-96.7429558,43.533538,"Talley Building, 1310, West 22nd Street, Sioux Falls, Sioux Falls Township, Minnehaha County, South Dakota, 57105, United States "
479,Oh Unidentified Oh School,-84.553637,39.6174489,"SR 503, Preble County, Ohio, 45070, United States "
480,Mo Unidentified Mo School,-94.2878381,39.24118259999999,"746, Main Street, Missouri City, Clay County, Missouri, 64072, United States "
481,Tx Texas A & M Univ College Of Medicine,-96.3944323,30.5982538,"Texas A&M University Health Science Center, Health Science Center Parkway, Bryan, Brazos County, Texas, 77842, United States "
482,Fn Greece,23.7226974,37.9820703,"1, Κολωνού, Ψυρρή, 1η Κοινότητα Αθηνών, Αθήνα, Δήμος Αθηναίων, Περιφερειακή Ενότητα Κεντρικού Τομέα Αθηνών, Περιφέρεια Αττικής, Αποκεντρωμένη Διοίκηση Αττικής, 104 37, Ελλάς "
483,Oh Oh Univ College Of Osteopathic Medicine,-97.3362387,37.6856956,"247, East Douglas Avenue, Wichita, Sedgwick County, Kansas, 67202, United States "
484,Pa Philadelphia College Of Osteopathic Med,-75.2164944,40.0052824,"Philadelphia College of Osteopathic Medicine, 4170, City Avenue, Sutton Terrace, Philadelphia, Montgomery County, Pennsylvania, 19131, United States "
485,"Texas Tech Univ Hlth Sci Ctr, Lubbo",-101.8912035,33.5901499,"University Medical Center, 602, Indiana Avenue, Lubbock, Lubbock County, Texas, 79415, United States "
486,University Of Vermont,-73.1964637,44.4778528,"University of Vermont, Williston Road, South Burlington, Chittenden County, Vermont, 05403, United States "
487,University Of Missouri-kansas City,-94.5834274,39.0343551,"Brookside 51, 5100, Oak Street, Countryside, Country Club Plaza, Kansas City, Jackson County, Missouri, 64112, United States "
488,Ar Unidentified Ar School,-94.1327342,36.3076956,"South 12th Street, Rogers, Benton County, Arkansas, 72758, United States "
489,Dartmouth Med School Hanover Nh,-72.28510849999999,43.7087283,"Remsen Medical Sciences Building, 66, College Street, Hanover, Grafton County, New Hampshire, 03755, United States "
490,University Of Conn Medical School F,-72.7912369,41.7298363,"University of Connecticut Health Center, 263, Farmington Avenue, Farmington, Capitol Planning Region, Connecticut, 06030, United States "
491,Wayne State University,-83.06654619999999,42.3591388,"Detroit Public Library, Woodward Avenue, Art District, Midtown, Detroit, Wayne County, Michigan, 48201, United States "
492,Midwesterrn University Chicago Coll,-87.6316725,41.886048,"203, Pedway, Loop, Chicago, Cook County, Illinois, 60601, United States "
493,"Arhus University, Arhus Denmark",10.2000645,56.1659924,"Aarhus Universitet, Victor Albecks Vej, Nobelparken, Aarhus, Aarhus Kommune, Region Midtjylland, 8000, Danmark "
494,"University Of Texas, Galveston Tx",-94.7775436,29.3116372,"University of Texas Medical Branch at Galveston, 301, 14th Street, Galveston, Galveston County, Texas, 77555, United States "
495,Univ Of Vermont Coll Of Med -burlin,-73.1937427,44.47825659999999,"Dana Medical Library, 81, Colchester Avenue, Burlington, Chittenden County, Vermont, 05404, United States "
496,Univ Of Michigan Med Sch - Ann Arbo,-83.7326064,42.2840011,"University of Michigan Medical Center, East Medical Center Drive, Ann Arbor, Washtenaw County, Michigan, 48109, United States "
497,Vanderbilt Univ School Of Medicine,-86.8025487,36.1422248,"Vanderbilt University, 2201, West End Avenue, Nashville-Davidson, Davidson County, Middle Tennessee, Tennessee, 37235, United States "
498,Albert Einstein Coll Of Med Of Yesh,-73.8459022,40.8504961,"Jack D. Weiler Hospital, 1825, Eastchester Road, Bronx County, The Bronx, City of New York, New York, 10461, United States "
499,"New York Med Coll- Valhalla, Ny",-73.81007269999999,41.0852704,"New York Medical College, Plaza West, Town of Mount Pleasant, Westchester County, New York, 10532, United States "
500,"Univ Of New England - Biddeford, Me",-70.3865402,43.4582904,"University of New England, Pool Street, Tattle Corner, Biddeford, York County, Maine, 04005, United States "
501,Univ Of Minnesota Med Sch - Minneap,-93.2334764,44.9725425,"University of Minnesota Medical Center East Bank, 500, Southeast Harvard Street, Minneapolis, Hennepin County, Minnesota, 55455, United States "
502,"Dartmouth Medical School, Lebanon N",-72.28510849999999,43.7087283,"Remsen Medical Sciences Building, 66, College Street, Hanover, Grafton County, New Hampshire, 03755, United States "
503,State Univ Of New York Upstate Coll,-73.7496082,42.6480184,"SUNY System Administration Building, 353, Broadway, Downtown, City of Albany, Albany County, New York, 12207, United States "
504,University Of Vermont Medical Schoo,-73.1937427,44.47825659999999,"Dana Medical Library, 81, Colchester Avenue, Burlington, Chittenden County, Vermont, 05404, United States "
505,Dartmouth-hitchcock Med Ctr-hanover,-72.2729588,43.6754932,"Dartmouth-Hitchcock Medical Center, 1, Medical Center Drive, Lebanon, Grafton County, New Hampshire, 03756, United States "
506,"Tufts Univ Sch Med -boston,ma",-71.0633276,42.34996779999999,"Tufts Medical Center, 800, Washington Street, Bay Village, Boston, Suffolk County, Massachusetts, 02111, United States "
507,"Boston Univ Sch Of Med - Boston, Ma",-71.072414,42.3364043,"Boston University Medical Campus, 715, Albany Street, South End, Boston, Suffolk County, Massachusetts, 02118, United States "
508,Univ Of Michigan Med Sch-ann Arbor,-83.7326064,42.2840011,"University of Michigan Medical Center, East Medical Center Drive, Ann Arbor, Washtenaw County, Michigan, 48109, United States "
509,Univ Of Virginia Sch Of Med-charlot,-78.5009733,38.0316075,"University of Virginia Medical Center, 1215, Lee Street, Jefferson Park Avenue, Starr Hill, Charlottesville, Virginia, 22908, United States "
510,"Georgetown Univ Sch Med-washington,",-77.0770304,38.9118852,"Georgetown University, 3700, O Street Northwest, Peter Square, Georgetown, Ward 2, Washington, District of Columbia, 20057, United States "
511,Univ Of Rochester Sch Of Med-roches,-77.6269403,43.1230503,"University of Rochester Medical Center, 601, Elmwood Avenue, Genesee Valley Park, City of Rochester, Monroe County, New York, 14611, United States "
512,Georgetown University,-77.07225849999999,38.9076089,"Georgetown University, 3700, O Street Northwest, Peter Square, Georgetown, Ward 2, Washington, District of Columbia, 20057, United States "
513,University Of Cincinnati,-84.51495039999999,39.1329219,"University of Cincinnati Main Campus, Jefferson Avenue, Corryville, Cincinnati, Hamilton County, Ohio, 45221, United States "
514,"Tufts Univ School Of Med - Boston,",-71.0622717,42.3500802,"Tufts University, 274, Tremont Street, Bay Village, Boston, Suffolk County, Massachusetts, 02111, United States "
515,St Louis University School Of Medic,-90.2377947,38.6224549,"Saint Louis University South Campus, Ranken Avenue, Midtown, Saint Louis, Missouri, 63103, United States "
516,"Dartmouth Medical School - Lebanon,",-72.28510849999999,43.7087283,"Remsen Medical Sciences Building, 66, College Street, Hanover, Grafton County, New Hampshire, 03755, United States "
517,Univ Of Texas Medical School - San,-98.5751835,29.5076015,"University of Texas Health Science Center at San Antonio - Long Campus, 7703, Floyd Curl Drive, South Texas Medical Center, San Antonio, Bexar County, Texas, 78229, United States "
518,Univ Of Virginia Sch Med - Charlott,-78.5009733,38.0316075,"University of Virginia Medical Center, 1215, Lee Street, Jefferson Park Avenue, Starr Hill, Charlottesville, Virginia, 22908, United States "
519,Univ Of Oklahoma Coll Med - Oklahom,-97.4955391,35.4797264,"OU College of Medicine, Stanton L Young Boulevard, Oklahoma City, Oklahoma County, Oklahoma, 73117, United States "
520,Georgetown Univ School Of Medicine,-77.0770304,38.9118852,"Georgetown University, 3700, O Street Northwest, Peter Square, Georgetown, Ward 2, Washington, District of Columbia, 20057, United States "
521,Univ Di Bologna Fac Di Med Chirurgi,11.3550368,44.4990188,"Università di Bologna, Via Quirino Maiorana, Irnerio, Santo Stefano, Bologna, Emilia-Romagna, 40126, Italia "
522,Bowman Gray Sch Med Of Wake Forrest,-80.24023869999999,36.1001204,"Wake Forest University Wake Downtown, 455, Vine Street, Wake Forest Innovation Quarter, Winston-Salem, Forsyth County, North Carolina, 27101, United States "
523,Univ Di Padova Fac Di Med E Chirurg,11.8866282,45.4038444,"Ospedale Giustinianeo, Via Ospedale Civile, Forcellini, Padova, Veneto, 35121, Italia "
524,"Kirksville College, Kirksville Mo",-92.58941430000002,40.19314929999999,"Northeast Regional Medical Center, 315, South Osteopathy, Kirksville, Adair County, Missouri, 63501, United States "
525,Philadelphia Coll Osteo Med - Phila,-75.2164944,40.0052824,"Philadelphia College of Osteopathic Medicine, 4170, City Avenue, Sutton Terrace, Philadelphia, Montgomery County, Pennsylvania, 19131, United States "
526,Philadelphia Coll Of Osteopathic Me,-75.2164944,40.0052824,"Philadelphia College of Osteopathic Medicine, 4170, City Avenue, Sutton Terrace, Philadelphia, Montgomery County, Pennsylvania, 19131, United States "
527,Indiana Uhiv Sch Of Med - Indianapo,-86.16517139999999,39.7815613,"Fairbanks Hall, 340, West 10th Street, Fayette Street Conservation Area, Indianapolis, Marion County, Indiana, 46202, United States "
528,University Of Oklahoma - Oklahoma C,-97.5410111,35.495481,"Oklahoma City University, North Virginia Avenue, Gatewood, Oklahoma City, Oklahoma County, Oklahoma, 73106, United States "
529,"Midwestern University Of Arizona, G",-112.1833108,33.6637764,"Midwestern University, 19555, North 59th Avenue, Glendale, Maricopa County, Arizona, 85308, United States "
530,Boston Univ School Of Medicine - Bo,-71.072414,42.3364043,"Boston University Medical Campus, 715, Albany Street, South End, Boston, Suffolk County, Massachusetts, 02118, United States "
531,Univ Of Massachusetts Med Sch - Wor,-71.7633073,42.2786007,"UMass Memorial Medical Center - University Campus, 55, Lake Avenue, Lakeview, Worcester, Worcester County, Massachusetts, 01655, United States "
532,Univ Of Tx Med Sch At San Antonio-t,-98.5751835,29.5076015,"University of Texas Health Science Center at San Antonio - Long Campus, 7703, Floyd Curl Drive, South Texas Medical Center, San Antonio, Bexar County, Texas, 78229, United States "
533,"Univ Of Ct Sch Of Med-farmington,ct",-72.7912369,41.7298363,"University of Connecticut Health Center, 263, Farmington Avenue, Farmington, Capitol Planning Region, Connecticut, 06030, United States "
534,Mcgill Univ - Montreal,-73.5771511,45.50478469999999,"McGill University, Avenue des Pins Ouest, Ville-Marie, Montréal, Agglomération de Montréal, Montréal (région administrative), Québec, H2W 1S4, Canada "
535,Unv Of Vermont Coll Med - Burlingto,-73.1937427,44.47825659999999,"Dana Medical Library, 81, Colchester Avenue, Burlington, Chittenden County, Vermont, 05404, United States "
536,"Albany Med Coll - Albany, Ny",-73.77776349999999,42.6534295,"Albany Medical Center, 43, New Scotland Avenue, University Heights, City of Albany, Albany County, New York, 12208, United States "
537,Brown Univ Program In Med - Provide,-90.02966359999999,35.1405398,"Regional Medical Center, 877, Jefferson Avenue, Medical District, Dixie Homes, Memphis, Shelby County, West Tennessee, Tennessee, 38103, United States "
538,Suny At Buffalo School Of Med Biome,-78.8692757,42.8997469,"Buffalo Niagara Medical Campus, North Street, Buffalo Niagara Medical Campus, Buffalo, Erie County, New York, 14201, United States "
539,Louisiana State Univ School Of Medi,-90.0836789,29.956596,"Lions Eye Building, 2020, Gravier Street, Storyville, New Orleans, Orleans Parish, Louisiana, 70112, United States "
